<?xml version ='1.0' encoding='UTF-8'?>
<aeropuertos><aeropuerto país: "Papua New Guinea"><nombre>"Goroka Airport"</nombre><iata>"GKA"</iata><localización><ciudad>"Goroka"</ciudad><latitud>-6.081689834590001</latitud><longitud>145.391998291</longitud></localización></aeropuerto><aeropuerto país: "Papua New Guinea"><nombre>"Madang Airport"</nombre><iata>"MAG"</iata><localización><ciudad>"Madang"</ciudad><latitud>-5.20707988739</latitud><longitud>145.789001465</longitud></localización></aeropuerto><aeropuerto país: "Papua New Guinea"><nombre>"Mount Hagen Kagamuga Airport"</nombre><iata>"HGU"</iata><localización><ciudad>"Mount Hagen"</ciudad><latitud>-5.826789855957031</latitud><longitud>144.29600524902344</longitud></localización></aeropuerto><aeropuerto país: "Papua New Guinea"><nombre>"Nadzab Airport"</nombre><iata>"LAE"</iata><localización><ciudad>"Nadzab"</ciudad><latitud>-6.569803</latitud><longitud>146.725977</longitud></localización></aeropuerto><aeropuerto país: "Papua New Guinea"><nombre>"Port Moresby Jacksons International Airport"</nombre><iata>"POM"</iata><localización><ciudad>"Port Moresby"</ciudad><latitud>-9.443380355834961</latitud><longitud>147.22000122070312</longitud></localización></aeropuerto><aeropuerto país: "Papua New Guinea"><nombre>"Wewak International Airport"</nombre><iata>"WWK"</iata><localización><ciudad>"Wewak"</ciudad><latitud>-3.58383011818</latitud><longitud>143.669006348</longitud></localización></aeropuerto><aeropuerto país: "Greenland"><nombre>"Narsarsuaq Airport"</nombre><iata>"UAK"</iata><localización><ciudad>"Narssarssuaq"</ciudad><latitud>61.1604995728</latitud><longitud>-45.4259986877</longitud></localización></aeropuerto><aeropuerto país: "Greenland"><nombre>"Godthaab / Nuuk Airport"</nombre><iata>"GOH"</iata><localización><ciudad>"Godthaab"</ciudad><latitud>64.19090271</latitud><longitud>-51.6781005859</longitud></localización></aeropuerto><aeropuerto país: "Greenland"><nombre>"Kangerlussuaq Airport"</nombre><iata>"SFJ"</iata><localización><ciudad>"Sondrestrom"</ciudad><latitud>67.0122218992</latitud><longitud>-50.7116031647</longitud></localización></aeropuerto><aeropuerto país: "Greenland"><nombre>"Thule Air Base"</nombre><iata>"THU"</iata><localización><ciudad>"Thule"</ciudad><latitud>76.5311965942</latitud><longitud>-68.7032012939</longitud></localización></aeropuerto><aeropuerto país: "Iceland"><nombre>"Akureyri Airport"</nombre><iata>"AEY"</iata><localización><ciudad>"Akureyri"</ciudad><latitud>65.66000366210938</latitud><longitud>-18.07270050048828</longitud></localización></aeropuerto><aeropuerto país: "Iceland"><nombre>"Egilsstaðir Airport"</nombre><iata>"EGS"</iata><localización><ciudad>"Egilsstadir"</ciudad><latitud>65.2833023071289</latitud><longitud>-14.401399612426758</longitud></localización></aeropuerto><aeropuerto país: "Iceland"><nombre>"Hornafjörður Airport"</nombre><iata>"HFN"</iata><localización><ciudad>"Hofn"</ciudad><latitud>64.295601</latitud><longitud>-15.2272</longitud></localización></aeropuerto><aeropuerto país: "Iceland"><nombre>"Húsavík Airport"</nombre><iata>"HZK"</iata><localización><ciudad>"Husavik"</ciudad><latitud>65.952301</latitud><longitud>-17.426001</longitud></localización></aeropuerto><aeropuerto país: "Iceland"><nombre>"Ísafjörður Airport"</nombre><iata>"IFJ"</iata><localización><ciudad>"Isafjordur"</ciudad><latitud>66.05809783935547</latitud><longitud>-23.135299682617188</longitud></localización></aeropuerto><aeropuerto país: "Iceland"><nombre>"Keflavik International Airport"</nombre><iata>"KEF"</iata><localización><ciudad>"Keflavik"</ciudad><latitud>63.985000610352</latitud><longitud>-22.605600357056</longitud></localización></aeropuerto><aeropuerto país: "Iceland"><nombre>"Patreksfjörður Airport"</nombre><iata>"PFJ"</iata><localización><ciudad>"Patreksfjordur"</ciudad><latitud>65.555801</latitud><longitud>-23.965</longitud></localización></aeropuerto><aeropuerto país: "Iceland"><nombre>"Reykjavik Airport"</nombre><iata>"RKV"</iata><localización><ciudad>"Reykjavik"</ciudad><latitud>64.1299972534</latitud><longitud>-21.9405994415</longitud></localización></aeropuerto><aeropuerto país: "Iceland"><nombre>"Siglufjörður Airport"</nombre><iata>"SIJ"</iata><localización><ciudad>"Siglufjordur"</ciudad><latitud>66.133301</latitud><longitud>-18.9167</longitud></localización></aeropuerto><aeropuerto país: "Iceland"><nombre>"Vestmannaeyjar Airport"</nombre><iata>"VEY"</iata><localización><ciudad>"Vestmannaeyjar"</ciudad><latitud>63.42430114746094</latitud><longitud>-20.278900146484375</longitud></localización></aeropuerto><aeropuerto país: "Canada"><nombre>"Sault Ste Marie Airport"</nombre><iata>"YAM"</iata><localización><ciudad>"Sault Sainte Marie"</ciudad><latitud>46.48500061035156</latitud><longitud>-84.5093994140625</longitud></localización></aeropuerto><aeropuerto país: "Canada"><nombre>"Winnipeg / St. Andrews Airport"</nombre><iata>"YAV"</iata><localización><ciudad>"Winnipeg"</ciudad><latitud>50.0564002991</latitud><longitud>-97.03250122070001</longitud></localización></aeropuerto><aeropuerto país: "Canada"><nombre>"Halifax / CFB Shearwater Heliport"</nombre><iata>"YAW"</iata><localización><ciudad>"Halifax"</ciudad><latitud>44.6397018433</latitud><longitud>-63.499401092499994</longitud></localización></aeropuerto><aeropuerto país: "Canada"><nombre>"St. Anthony Airport"</nombre><iata>"YAY"</iata><localización><ciudad>"St. Anthony"</ciudad><latitud>51.3918991089</latitud><longitud>-56.083099365200006</longitud></localización></aeropuerto><aeropuerto país: "Canada"><nombre>"Tofino / Long Beach Airport"</nombre><iata>"YAZ"</iata><localización><ciudad>"Tofino"</ciudad><latitud>49.079833</latitud><longitud>-125.775583</longitud></localización></aeropuerto><aeropuerto país: "Canada"><nombre>"Kugaaruk Airport"</nombre><iata>"YBB"</iata><localización><ciudad>"Pelly Bay"</ciudad><latitud>68.534401</latitud><longitud>-89.808098</longitud></localización></aeropuerto><aeropuerto país: "Canada"><nombre>"Baie Comeau Airport"</nombre><iata>"YBC"</iata><localización><ciudad>"Baie Comeau"</ciudad><latitud>49.13249969482422</latitud><longitud>-68.20439910888672</longitud></localización></aeropuerto><aeropuerto país: "Canada"><nombre>"CFB Bagotville"</nombre><iata>"YBG"</iata><localización><ciudad>"Bagotville"</ciudad><latitud>48.33060073852539</latitud><longitud>-70.99639892578125</longitud></localización></aeropuerto><aeropuerto país: "Canada"><nombre>"Baker Lake Airport"</nombre><iata>"YBK"</iata><localización><ciudad>"Baker Lake"</ciudad><latitud>64.29889678960001</latitud><longitud>-96.077796936</longitud></localización></aeropuerto><aeropuerto país: "Canada"><nombre>"Campbell River Airport"</nombre><iata>"YBL"</iata><localización><ciudad>"Campbell River"</ciudad><latitud>49.950801849365234</latitud><longitud>-125.27100372314453</longitud></localización></aeropuerto><aeropuerto país: "Canada"><nombre>"Brandon Municipal Airport"</nombre><iata>"YBR"</iata><localización><ciudad>"Brandon"</ciudad><latitud>49.91</latitud><longitud>-99.951897</longitud></localización></aeropuerto><aeropuerto país: "Canada"><nombre>"Cambridge Bay Airport"</nombre><iata>"YCB"</iata><localización><ciudad>"Cambridge Bay"</ciudad><latitud>69.1081008911</latitud><longitud>-105.138000488</longitud></localización></aeropuerto><aeropuerto país: "Canada"><nombre>"Nanaimo Airport"</nombre><iata>"YCD"</iata><localización><ciudad>"Nanaimo"</ciudad><latitud>49.054970224899996</latitud><longitud>-123.869862556</longitud></localización></aeropuerto><aeropuerto país: "Canada"><nombre>"Castlegar/West Kootenay Regional Airport"</nombre><iata>"YCG"</iata><localización><ciudad>"Castlegar"</ciudad><latitud>49.2963981628</latitud><longitud>-117.632003784</longitud></localización></aeropuerto><aeropuerto país: "Canada"><nombre>"Miramichi Airport"</nombre><iata>"YCH"</iata><localización><ciudad>"Chatham"</ciudad><latitud>47.007801</latitud><longitud>-65.449203</longitud></localización></aeropuerto><aeropuerto país: "Canada"><nombre>"Charlo Airport"</nombre><iata>"YCL"</iata><localización><ciudad>"Charlo"</ciudad><latitud>47.990799</latitud><longitud>-66.330299</longitud></localización></aeropuerto><aeropuerto país: "Canada"><nombre>"Kugluktuk Airport"</nombre><iata>"YCO"</iata><localización><ciudad>"Coppermine"</ciudad><latitud>67.81670379639999</latitud><longitud>-115.143997192</longitud></localización></aeropuerto><aeropuerto país: "Canada"><nombre>"Coronation Airport"</nombre><iata>"YCT"</iata><localización><ciudad>"Coronation"</ciudad><latitud>52.0750007629</latitud><longitud>-111.444999695</longitud></localización></aeropuerto><aeropuerto país: "Canada"><nombre>"Chilliwack Airport"</nombre><iata>"YCW"</iata><localización><ciudad>"Chilliwack"</ciudad><latitud>49.1528015137</latitud><longitud>-121.939002991</longitud></localización></aeropuerto><aeropuerto país: "Canada"><nombre>"Clyde River Airport"</nombre><iata>"YCY"</iata><localización><ciudad>"Clyde River"</ciudad><latitud>70.4860992432</latitud><longitud>-68.5167007446</longitud></localización></aeropuerto><aeropuerto país: "Canada"><nombre>"Coral Harbour Airport"</nombre><iata>"YZS"</iata><localización><ciudad>"Coral Harbour"</ciudad><latitud>64.1932983398</latitud><longitud>-83.3593978882</longitud></localización></aeropuerto><aeropuerto país: "Canada"><nombre>"Dawson City Airport"</nombre><iata>"YDA"</iata><localización><ciudad>"Dawson"</ciudad><latitud>64.04309844970703</latitud><longitud>-139.1280059814453</longitud></localización></aeropuerto><aeropuerto país: "Canada"><nombre>"Burwash Airport"</nombre><iata>"YDB"</iata><localización><ciudad>"Burwash"</ciudad><latitud>61.37110137939453</latitud><longitud>-139.04100036621094</longitud></localización></aeropuerto><aeropuerto país: "Canada"><nombre>"Princeton Airport"</nombre><iata>"YDC"</iata><localización><ciudad>"Princeton"</ciudad><latitud>49.4681015015</latitud><longitud>-120.511001587</longitud></localización></aeropuerto><aeropuerto país: "Canada"><nombre>"Deer Lake Airport"</nombre><iata>"YDF"</iata><localización><ciudad>"Deer Lake"</ciudad><latitud>49.21080017089844</latitud><longitud>-57.39139938354492</longitud></localización></aeropuerto><aeropuerto país: "Canada"><nombre>"Dease Lake Airport"</nombre><iata>"YDL"</iata><localización><ciudad>"Dease Lake"</ciudad><latitud>58.4221992493</latitud><longitud>-130.031997681</longitud></localización></aeropuerto><aeropuerto país: "Canada"><nombre>"Dauphin Barker Airport"</nombre><iata>"YDN"</iata><localización><ciudad>"Dauphin"</ciudad><latitud>51.100799560546875</latitud><longitud>-100.052001953125</longitud></localización></aeropuerto><aeropuerto país: "Canada"><nombre>"Dawson Creek Airport"</nombre><iata>"YDQ"</iata><localización><ciudad>"Dawson Creek"</ciudad><latitud>55.7422981262207</latitud><longitud>-120.18299865722656</longitud></localización></aeropuerto><aeropuerto país: "Canada"><nombre>"Edmonton International Airport"</nombre><iata>"YEG"</iata><localización><ciudad>"Edmonton"</ciudad><latitud>53.309700012200004</latitud><longitud>-113.580001831</longitud></localización></aeropuerto><aeropuerto país: "Canada"><nombre>"Arviat Airport"</nombre><iata>"YEK"</iata><localización><ciudad>"Eskimo Point"</ciudad><latitud>61.0942001343</latitud><longitud>-94.07080078119999</longitud></localización></aeropuerto><aeropuerto país: "Canada"><nombre>"Estevan Airport"</nombre><iata>"YEN"</iata><localización><ciudad>"Estevan"</ciudad><latitud>49.2103004456</latitud><longitud>-102.966003418</longitud></localización></aeropuerto><aeropuerto país: "Canada"><nombre>"Edson Airport"</nombre><iata>"YET"</iata><localización><ciudad>"Edson"</ciudad><latitud>53.578899383499994</latitud><longitud>-116.464996338</longitud></localización></aeropuerto><aeropuerto país: "Canada"><nombre>"Eureka Airport"</nombre><iata>"YEU"</iata><localización><ciudad>"Eureka"</ciudad><latitud>79.9946975708</latitud><longitud>-85.814201355</longitud></localización></aeropuerto><aeropuerto país: "Canada"><nombre>"Inuvik Mike Zubko Airport"</nombre><iata>"YEV"</iata><localización><ciudad>"Inuvik"</ciudad><latitud>68.30419921880001</latitud><longitud>-133.483001709</longitud></localización></aeropuerto><aeropuerto país: "Canada"><nombre>"Iqaluit Airport"</nombre><iata>"YFB"</iata><localización><ciudad>"Iqaluit"</ciudad><latitud>63.756401062</latitud><longitud>-68.5558013916</longitud></localización></aeropuerto><aeropuerto país: "Canada"><nombre>"Fredericton Airport"</nombre><iata>"YFC"</iata><localización><ciudad>"Fredericton"</ciudad><latitud>45.868900299072266</latitud><longitud>-66.53720092773438</longitud></localización></aeropuerto><aeropuerto país: "Canada"><nombre>"Forestville Airport"</nombre><iata>\N</iata><localización><ciudad>"Forestville"</ciudad><latitud>48.74610137939453</latitud><longitud>-69.09719848632812</longitud></localización></aeropuerto><aeropuerto país: "Canada"><nombre>"Flin Flon Airport"</nombre><iata>"YFO"</iata><localización><ciudad>"Flin Flon"</ciudad><latitud>54.6781005859375</latitud><longitud>-101.68199920654297</longitud></localización></aeropuerto><aeropuerto país: "Canada"><nombre>"Fort Resolution Airport"</nombre><iata>"YFR"</iata><localización><ciudad>"Fort Resolution"</ciudad><latitud>61.1808013916</latitud><longitud>-113.690002441</longitud></localización></aeropuerto><aeropuerto país: "Canada"><nombre>"Fort Simpson Airport"</nombre><iata>"YFS"</iata><localización><ciudad>"Fort Simpson"</ciudad><latitud>61.76020050048828</latitud><longitud>-121.23699951171875</longitud></localización></aeropuerto><aeropuerto país: "Canada"><nombre>"Kingston Norman Rogers Airport"</nombre><iata>"YGK"</iata><localización><ciudad>"Kingston"</ciudad><latitud>44.22529983520508</latitud><longitud>-76.5969009399414</longitud></localización></aeropuerto><aeropuerto país: "Canada"><nombre>"La Grande Rivière Airport"</nombre><iata>"YGL"</iata><localización><ciudad>"La Grande Riviere"</ciudad><latitud>53.625301361083984</latitud><longitud>-77.7042007446289</longitud></localización></aeropuerto><aeropuerto país: "Canada"><nombre>"Gaspé (Michel-Pouliot) Airport"</nombre><iata>"YGP"</iata><localización><ciudad>"Gaspe"</ciudad><latitud>48.7752990723</latitud><longitud>-64.4785995483</longitud></localización></aeropuerto><aeropuerto país: "Canada"><nombre>"Geraldton Greenstone Regional Airport"</nombre><iata>"YGQ"</iata><localización><ciudad>"Geraldton"</ciudad><latitud>49.77830123901367</latitud><longitud>-86.93939971923828</longitud></localización></aeropuerto><aeropuerto país: "Canada"><nombre>"Îles-de-la-Madeleine Airport"</nombre><iata>"YGR"</iata><localización><ciudad>"Iles De La Madeleine"</ciudad><latitud>47.42470169067383</latitud><longitud>-61.778099060058594</longitud></localización></aeropuerto><aeropuerto país: "Canada"><nombre>"Hudson Bay Airport"</nombre><iata>"YHB"</iata><localización><ciudad>"Hudson Bay"</ciudad><latitud>52.8166999817</latitud><longitud>-102.310997009</longitud></localización></aeropuerto><aeropuerto país: "Canada"><nombre>"Dryden Regional Airport"</nombre><iata>"YHD"</iata><localización><ciudad>"Dryden"</ciudad><latitud>49.83169937133789</latitud><longitud>-92.74420166015625</longitud></localización></aeropuerto><aeropuerto país: "Canada"><nombre>"Ulukhaktok Holman Airport"</nombre><iata>"YHI"</iata><localización><ciudad>"Holman Island"</ciudad><latitud>70.76280212402344</latitud><longitud>-117.80599975585938</longitud></localización></aeropuerto><aeropuerto país: "Canada"><nombre>"Gjoa Haven Airport"</nombre><iata>"YHK"</iata><localización><ciudad>"Gjoa Haven"</ciudad><latitud>68.635597229</latitud><longitud>-95.84970092770001</longitud></localización></aeropuerto><aeropuerto país: "Canada"><nombre>"John C. Munro Hamilton International Airport"</nombre><iata>"YHM"</iata><localización><ciudad>"Hamilton"</ciudad><latitud>43.173599243199995</latitud><longitud>-79.93499755859999</longitud></localización></aeropuerto><aeropuerto país: "Canada"><nombre>"Montréal / Saint-Hubert Airport"</nombre><iata>"YHU"</iata><localización><ciudad>"Montreal"</ciudad><latitud>45.5175018311</latitud><longitud>-73.4169006348</longitud></localización></aeropuerto><aeropuerto país: "Canada"><nombre>"Hay River / Merlyn Carter Airport"</nombre><iata>"YHY"</iata><localización><ciudad>"Hay River"</ciudad><latitud>60.8396987915</latitud><longitud>-115.782997131</longitud></localización></aeropuerto><aeropuerto país: "Canada"><nombre>"Halifax / Stanfield International Airport"</nombre><iata>"YHZ"</iata><localización><ciudad>"Halifax"</ciudad><latitud>44.8807983398</latitud><longitud>-63.5085983276</longitud></localización></aeropuerto><aeropuerto país: "Canada"><nombre>"Atikokan Municipal Airport"</nombre><iata>"YIB"</iata><localización><ciudad>"Atikokan"</ciudad><latitud>48.7738990784</latitud><longitud>-91.6386032104</longitud></localización></aeropuerto><aeropuerto país: "Canada"><nombre>"Pond Inlet Airport"</nombre><iata>"YIO"</iata><localización><ciudad>"Pond Inlet"</ciudad><latitud>72.6832962036</latitud><longitud>-77.9666976929</longitud></localización></aeropuerto><aeropuerto país: "Canada"><nombre>"St Jean Airport"</nombre><iata>"YJN"</iata><localización><ciudad>"St. Jean"</ciudad><latitud>45.29439926147461</latitud><longitud>-73.28109741210938</longitud></localización></aeropuerto><aeropuerto país: "Canada"><nombre>"Stephenville Airport"</nombre><iata>"YJT"</iata><localización><ciudad>"Stephenville"</ciudad><latitud>48.5442008972168</latitud><longitud>-58.54999923706055</longitud></localización></aeropuerto><aeropuerto país: "Canada"><nombre>"Kamloops Airport"</nombre><iata>"YKA"</iata><localización><ciudad>"Kamloops"</ciudad><latitud>50.7022018433</latitud><longitud>-120.444000244</longitud></localización></aeropuerto><aeropuerto país: "Canada"><nombre>"Waterloo Airport"</nombre><iata>"YKF"</iata><localización><ciudad>"Waterloo"</ciudad><latitud>43.460800170899994</latitud><longitud>-80.3786010742</longitud></localización></aeropuerto><aeropuerto país: "Canada"><nombre>"Schefferville Airport"</nombre><iata>"YKL"</iata><localización><ciudad>"Schefferville"</ciudad><latitud>54.805301666259766</latitud><longitud>-66.8052978515625</longitud></localización></aeropuerto><aeropuerto país: "Canada"><nombre>"Kindersley Airport"</nombre><iata>"YKY"</iata><localización><ciudad>"Kindersley"</ciudad><latitud>51.5175018311</latitud><longitud>-109.180999756</longitud></localización></aeropuerto><aeropuerto país: "Canada"><nombre>"Buttonville Municipal Airport"</nombre><iata>"YKZ"</iata><localización><ciudad>"Toronto"</ciudad><latitud>43.86220169067383</latitud><longitud>-79.37000274658203</longitud></localización></aeropuerto><aeropuerto país: "Canada"><nombre>"Chapleau Airport"</nombre><iata>"YLD"</iata><localización><ciudad>"Chapleau"</ciudad><latitud>47.81999969482422</latitud><longitud>-83.3467025756836</longitud></localización></aeropuerto><aeropuerto país: "Canada"><nombre>"Meadow Lake Airport"</nombre><iata>"YLJ"</iata><localización><ciudad>"Meadow Lake"</ciudad><latitud>54.125301361083984</latitud><longitud>-108.52300262451172</longitud></localización></aeropuerto><aeropuerto país: "Canada"><nombre>"Lloydminster Airport"</nombre><iata>"YLL"</iata><localización><ciudad>"Lloydminster"</ciudad><latitud>53.309200286865234</latitud><longitud>-110.072998046875</longitud></localización></aeropuerto><aeropuerto país: "Canada"><nombre>"Alert Airport"</nombre><iata>"YLT"</iata><localización><ciudad>"Alert"</ciudad><latitud>82.51779937740001</latitud><longitud>-62.2806015015</longitud></localización></aeropuerto><aeropuerto país: "Canada"><nombre>"Kelowna International Airport"</nombre><iata>"YLW"</iata><localización><ciudad>"Kelowna"</ciudad><latitud>49.9561004639</latitud><longitud>-119.377998352</longitud></localización></aeropuerto><aeropuerto país: "Canada"><nombre>"Mayo Airport"</nombre><iata>"YMA"</iata><localización><ciudad>"Mayo"</ciudad><latitud>63.61640167236328</latitud><longitud>-135.8679962158203</longitud></localización></aeropuerto><aeropuerto país: "Canada"><nombre>"Moose Jaw Air Vice Marshal C. M. McEwen Airport"</nombre><iata>"YMJ"</iata><localización><ciudad>"Moose Jaw"</ciudad><latitud>50.330299377441406</latitud><longitud>-105.55899810791016</longitud></localización></aeropuerto><aeropuerto país: "Canada"><nombre>"Fort McMurray Airport"</nombre><iata>"YMM"</iata><localización><ciudad>"Fort Mcmurray"</ciudad><latitud>56.653301239</latitud><longitud>-111.222000122</longitud></localización></aeropuerto><aeropuerto país: "Canada"><nombre>"Moosonee Airport"</nombre><iata>"YMO"</iata><localización><ciudad>"Moosonee"</ciudad><latitud>51.291099548339844</latitud><longitud>-80.60780334472656</longitud></localización></aeropuerto><aeropuerto país: "Canada"><nombre>"Maniwaki Airport"</nombre><iata>"YMW"</iata><localización><ciudad>"Maniwaki"</ciudad><latitud>46.2728004456</latitud><longitud>-75.9906005859</longitud></localización></aeropuerto><aeropuerto país: "Canada"><nombre>"Montreal International (Mirabel) Airport"</nombre><iata>"YMX"</iata><localización><ciudad>"Montreal"</ciudad><latitud>45.6795005798</latitud><longitud>-74.0386962891</longitud></localización></aeropuerto><aeropuerto país: "Canada"><nombre>"Natashquan Airport"</nombre><iata>"YNA"</iata><localización><ciudad>"Natashquan"</ciudad><latitud>50.189998626708984</latitud><longitud>-61.78919982910156</longitud></localización></aeropuerto><aeropuerto país: "Canada"><nombre>"Ottawa / Gatineau Airport"</nombre><iata>"YND"</iata><localización><ciudad>"Gatineau"</ciudad><latitud>45.521701812699995</latitud><longitud>-75.5635986328</longitud></localización></aeropuerto><aeropuerto país: "Canada"><nombre>"Matagami Airport"</nombre><iata>"YNM"</iata><localización><ciudad>"Matagami"</ciudad><latitud>49.76169967651367</latitud><longitud>-77.80280303955078</longitud></localización></aeropuerto><aeropuerto país: "Canada"><nombre>"Old Crow Airport"</nombre><iata>"YOC"</iata><localización><ciudad>"Old Crow"</ciudad><latitud>67.57060241699219</latitud><longitud>-139.83900451660156</longitud></localización></aeropuerto><aeropuerto país: "Canada"><nombre>"CFB Cold Lake"</nombre><iata>"YOD"</iata><localización><ciudad>"Cold Lake"</ciudad><latitud>54.404998779296875</latitud><longitud>-110.27899932861328</longitud></localización></aeropuerto><aeropuerto país: "Canada"><nombre>"High Level Airport"</nombre><iata>"YOJ"</iata><localización><ciudad>"High Level"</ciudad><latitud>58.62139892578125</latitud><longitud>-117.16500091552734</longitud></localización></aeropuerto><aeropuerto país: "Canada"><nombre>"Ottawa Macdonald-Cartier International Airport"</nombre><iata>"YOW"</iata><localización><ciudad>"Ottawa"</ciudad><latitud>45.3224983215332</latitud><longitud>-75.66919708251953</longitud></localización></aeropuerto><aeropuerto país: "Canada"><nombre>"Prince Albert Glass Field"</nombre><iata>"YPA"</iata><localización><ciudad>"Prince Albert"</ciudad><latitud>53.214199066199996</latitud><longitud>-105.672996521</longitud></localización></aeropuerto><aeropuerto país: "Canada"><nombre>"Peace River Airport"</nombre><iata>"YPE"</iata><localización><ciudad>"Peace River"</ciudad><latitud>56.226898193359375</latitud><longitud>-117.4469985961914</longitud></localización></aeropuerto><aeropuerto país: "Canada"><nombre>"Southport Airport"</nombre><iata>"YPG"</iata><localización><ciudad>"Portage-la-prairie"</ciudad><latitud>49.903099</latitud><longitud>-98.273817</longitud></localización></aeropuerto><aeropuerto país: "Canada"><nombre>"Pitt Meadows Airport"</nombre><iata>\N</iata><localización><ciudad>"Pitt Meadows"</ciudad><latitud>49.21609878540039</latitud><longitud>-122.70999908447266</longitud></localización></aeropuerto><aeropuerto país: "Canada"><nombre>"Pickle Lake Airport"</nombre><iata>"YPL"</iata><localización><ciudad>"Pickle Lake"</ciudad><latitud>51.4463996887207</latitud><longitud>-90.21420288085938</longitud></localización></aeropuerto><aeropuerto país: "Canada"><nombre>"Port Menier Airport"</nombre><iata>"YPN"</iata><localización><ciudad>"Port Menier"</ciudad><latitud>49.83639907836914</latitud><longitud>-64.2885971069336</longitud></localización></aeropuerto><aeropuerto país: "Canada"><nombre>"Peterborough Airport"</nombre><iata>"YPQ"</iata><localización><ciudad>"Peterborough"</ciudad><latitud>44.22999954223633</latitud><longitud>-78.36329650878906</longitud></localización></aeropuerto><aeropuerto país: "Canada"><nombre>"Prince Rupert Airport"</nombre><iata>"YPR"</iata><localización><ciudad>"Prince Pupert"</ciudad><latitud>54.286098480199996</latitud><longitud>-130.445007324</longitud></localización></aeropuerto><aeropuerto país: "Canada"><nombre>"Fort Chipewyan Airport"</nombre><iata>"YPY"</iata><localización><ciudad>"Fort Chipewyan"</ciudad><latitud>58.7672004699707</latitud><longitud>-111.11699676513672</longitud></localización></aeropuerto><aeropuerto país: "Canada"><nombre>"Muskoka Airport"</nombre><iata>"YQA"</iata><localización><ciudad>"Muskoka"</ciudad><latitud>44.974700927734375</latitud><longitud>-79.30329895019531</longitud></localización></aeropuerto><aeropuerto país: "Canada"><nombre>"Quebec Jean Lesage International Airport"</nombre><iata>"YQB"</iata><localización><ciudad>"Quebec"</ciudad><latitud>46.7911</latitud><longitud>-71.393303</longitud></localización></aeropuerto><aeropuerto país: "Canada"><nombre>"Red Deer Regional Airport"</nombre><iata>"YQF"</iata><localización><ciudad>"Red Deer Industrial"</ciudad><latitud>52.18220138549805</latitud><longitud>-113.89399719238281</longitud></localización></aeropuerto><aeropuerto país: "Canada"><nombre>"Windsor Airport"</nombre><iata>"YQG"</iata><localización><ciudad>"Windsor"</ciudad><latitud>42.27560043334961</latitud><longitud>-82.95559692382812</longitud></localización></aeropuerto><aeropuerto país: "Canada"><nombre>"Watson Lake Airport"</nombre><iata>"YQH"</iata><localización><ciudad>"Watson Lake"</ciudad><latitud>60.11640167236328</latitud><longitud>-128.82200622558594</longitud></localización></aeropuerto><aeropuerto país: "Canada"><nombre>"Kenora Airport"</nombre><iata>"YQK"</iata><localización><ciudad>"Kenora"</ciudad><latitud>49.788299560546875</latitud><longitud>-94.36309814453125</longitud></localización></aeropuerto><aeropuerto país: "Canada"><nombre>"Lethbridge County Airport"</nombre><iata>"YQL"</iata><localización><ciudad>"Lethbridge"</ciudad><latitud>49.6302986145</latitud><longitud>-112.800003052</longitud></localización></aeropuerto><aeropuerto país: "Canada"><nombre>"Greater Moncton International Airport"</nombre><iata>"YQM"</iata><localización><ciudad>"Moncton"</ciudad><latitud>46.11220169067383</latitud><longitud>-64.67859649658203</longitud></localización></aeropuerto><aeropuerto país: "Canada"><nombre>"Comox Airport"</nombre><iata>"YQQ"</iata><localización><ciudad>"Comox"</ciudad><latitud>49.71080017089844</latitud><longitud>-124.88700103759766</longitud></localización></aeropuerto><aeropuerto país: "Canada"><nombre>"Regina International Airport"</nombre><iata>"YQR"</iata><localización><ciudad>"Regina"</ciudad><latitud>50.43190002441406</latitud><longitud>-104.66600036621094</longitud></localización></aeropuerto><aeropuerto país: "Canada"><nombre>"Thunder Bay Airport"</nombre><iata>"YQT"</iata><localización><ciudad>"Thunder Bay"</ciudad><latitud>48.37189865112305</latitud><longitud>-89.32389831542969</longitud></localización></aeropuerto><aeropuerto país: "Canada"><nombre>"Grande Prairie Airport"</nombre><iata>"YQU"</iata><localización><ciudad>"Grande Prairie"</ciudad><latitud>55.1796989441</latitud><longitud>-118.885002136</longitud></localización></aeropuerto><aeropuerto país: "Canada"><nombre>"Yorkton Municipal Airport"</nombre><iata>"YQV"</iata><localización><ciudad>"Yorkton"</ciudad><latitud>51.26470184326172</latitud><longitud>-102.46199798583984</longitud></localización></aeropuerto><aeropuerto país: "Canada"><nombre>"North Battleford Airport"</nombre><iata>"YQW"</iata><localización><ciudad>"North Battleford"</ciudad><latitud>52.76919937133789</latitud><longitud>-108.24400329589844</longitud></localización></aeropuerto><aeropuerto país: "Canada"><nombre>"Gander International Airport"</nombre><iata>"YQX"</iata><localización><ciudad>"Gander"</ciudad><latitud>48.9369010925293</latitud><longitud>-54.56809997558594</longitud></localización></aeropuerto><aeropuerto país: "Canada"><nombre>"Sydney / J.A. Douglas McCurdy Airport"</nombre><iata>"YQY"</iata><localización><ciudad>"Sydney"</ciudad><latitud>46.161399841299996</latitud><longitud>-60.0477981567</longitud></localización></aeropuerto><aeropuerto país: "Canada"><nombre>"Quesnel Airport"</nombre><iata>"YQZ"</iata><localización><ciudad>"Quesnel"</ciudad><latitud>53.026100158691406</latitud><longitud>-122.51000213623047</longitud></localización></aeropuerto><aeropuerto país: "Canada"><nombre>"Resolute Bay Airport"</nombre><iata>"YRB"</iata><localización><ciudad>"Resolute"</ciudad><latitud>74.7169036865</latitud><longitud>-94.9693984985</longitud></localización></aeropuerto><aeropuerto país: "Canada"><nombre>"Rivière-du-Loup Airport"</nombre><iata>"YRI"</iata><localización><ciudad>"Riviere Du Loup"</ciudad><latitud>47.764400482177734</latitud><longitud>-69.58470153808594</longitud></localización></aeropuerto><aeropuerto país: "Canada"><nombre>"Roberval Airport"</nombre><iata>"YRJ"</iata><localización><ciudad>"Roberval"</ciudad><latitud>48.52000045776367</latitud><longitud>-72.2656021118164</longitud></localización></aeropuerto><aeropuerto país: "Canada"><nombre>"Rocky Mountain House Airport"</nombre><iata>"YRM"</iata><localización><ciudad>"Rocky Mountain House"</ciudad><latitud>52.4296989441</latitud><longitud>-114.903999329</longitud></localización></aeropuerto><aeropuerto país: "Canada"><nombre>"Rankin Inlet Airport"</nombre><iata>"YRT"</iata><localización><ciudad>"Rankin Inlet"</ciudad><latitud>62.8114013672</latitud><longitud>-92.1157989502</longitud></localización></aeropuerto><aeropuerto país: "Canada"><nombre>"Sudbury Airport"</nombre><iata>"YSB"</iata><localización><ciudad>"Sudbury"</ciudad><latitud>46.625</latitud><longitud>-80.79889678955078</longitud></localización></aeropuerto><aeropuerto país: "Canada"><nombre>"Sherbrooke Airport"</nombre><iata>"YSC"</iata><localización><ciudad>"Sherbrooke"</ciudad><latitud>45.4385986328125</latitud><longitud>-71.69139862060547</longitud></localización></aeropuerto><aeropuerto país: "Canada"><nombre>"Saint John Airport"</nombre><iata>"YSJ"</iata><localización><ciudad>"St. John"</ciudad><latitud>45.31610107421875</latitud><longitud>-65.89029693603516</longitud></localización></aeropuerto><aeropuerto país: "Canada"><nombre>"Fort Smith Airport"</nombre><iata>"YSM"</iata><localización><ciudad>"Fort Smith"</ciudad><latitud>60.020301818847656</latitud><longitud>-111.96199798583984</longitud></localización></aeropuerto><aeropuerto país: "Canada"><nombre>"Nanisivik Airport"</nombre><iata>"YSR"</iata><localización><ciudad>"Nanisivik"</ciudad><latitud>72.982201</latitud><longitud>-84.613602</longitud></localización></aeropuerto><aeropuerto país: "Canada"><nombre>"Summerside Airport"</nombre><iata>"YSU"</iata><localización><ciudad>"Summerside"</ciudad><latitud>46.44060134887695</latitud><longitud>-63.83359909057617</longitud></localización></aeropuerto><aeropuerto país: "Canada"><nombre>"Sachs Harbour (David Nasogaluak Jr. Saaryuaq) Airport"</nombre><iata>"YSY"</iata><localización><ciudad>"Sachs Harbour"</ciudad><latitud>71.9938964844</latitud><longitud>-125.242996216</longitud></localización></aeropuerto><aeropuerto país: "Canada"><nombre>"Cape Dorset Airport"</nombre><iata>"YTE"</iata><localización><ciudad>"Cape Dorset"</ciudad><latitud>64.2300033569</latitud><longitud>-76.5267028809</longitud></localización></aeropuerto><aeropuerto país: "Canada"><nombre>"Thompson Airport"</nombre><iata>"YTH"</iata><localización><ciudad>"Thompson"</ciudad><latitud>55.80110168457031</latitud><longitud>-97.86419677734375</longitud></localización></aeropuerto><aeropuerto país: "Canada"><nombre>"CFB Trenton"</nombre><iata>"YTR"</iata><localización><ciudad>"Trenton"</ciudad><latitud>44.118900299072266</latitud><longitud>-77.5280990600586</longitud></localización></aeropuerto><aeropuerto país: "Canada"><nombre>"Timmins/Victor M. Power"</nombre><iata>"YTS"</iata><localización><ciudad>"Timmins"</ciudad><latitud>48.569698333699996</latitud><longitud>-81.376701355</longitud></localización></aeropuerto><aeropuerto país: "Canada"><nombre>"Billy Bishop Toronto City Centre Airport"</nombre><iata>"YTZ"</iata><localización><ciudad>"Toronto"</ciudad><latitud>43.627499</latitud><longitud>-79.396202</longitud></localización></aeropuerto><aeropuerto país: "Canada"><nombre>"Tuktoyaktuk Airport"</nombre><iata>"YUB"</iata><localización><ciudad>"Tuktoyaktuk"</ciudad><latitud>69.43329620361328</latitud><longitud>-133.0260009765625</longitud></localización></aeropuerto><aeropuerto país: "Canada"><nombre>"Montreal / Pierre Elliott Trudeau International Airport"</nombre><iata>"YUL"</iata><localización><ciudad>"Montreal"</ciudad><latitud>45.4706001282</latitud><longitud>-73.7407989502</longitud></localización></aeropuerto><aeropuerto país: "Canada"><nombre>"Repulse Bay Airport"</nombre><iata>"YUT"</iata><localización><ciudad>"Repulse Bay"</ciudad><latitud>66.5214004517</latitud><longitud>-86.22470092770001</longitud></localización></aeropuerto><aeropuerto país: "Canada"><nombre>"Hall Beach Airport"</nombre><iata>"YUX"</iata><localización><ciudad>"Hall Beach"</ciudad><latitud>68.77610015869999</latitud><longitud>-81.2425</longitud></localización></aeropuerto><aeropuerto país: "Canada"><nombre>"Rouyn Noranda Airport"</nombre><iata>"YUY"</iata><localización><ciudad>"Rouyn"</ciudad><latitud>48.20610046386719</latitud><longitud>-78.83560180664062</longitud></localización></aeropuerto><aeropuerto país: "Canada"><nombre>"La Ronge Airport"</nombre><iata>"YVC"</iata><localización><ciudad>"La Ronge"</ciudad><latitud>55.151401519800004</latitud><longitud>-105.262001038</longitud></localización></aeropuerto><aeropuerto país: "Canada"><nombre>"Vermilion Airport"</nombre><iata>"YVG"</iata><localización><ciudad>"Vermillion"</ciudad><latitud>53.355800628699996</latitud><longitud>-110.823997498</longitud></localización></aeropuerto><aeropuerto país: "Canada"><nombre>"Qikiqtarjuaq Airport"</nombre><iata>"YVM"</iata><localización><ciudad>"Broughton Island"</ciudad><latitud>67.5457992554</latitud><longitud>-64.03140258789999</longitud></localización></aeropuerto><aeropuerto país: "Canada"><nombre>"Val-d'Or Airport"</nombre><iata>"YVO"</iata><localización><ciudad>"Val D'or"</ciudad><latitud>48.0532989502</latitud><longitud>-77.7827987671</longitud></localización></aeropuerto><aeropuerto país: "Canada"><nombre>"Kuujjuaq Airport"</nombre><iata>"YVP"</iata><localización><ciudad>"Quujjuaq"</ciudad><latitud>58.096099853515625</latitud><longitud>-68.4269027709961</longitud></localización></aeropuerto><aeropuerto país: "Canada"><nombre>"Norman Wells Airport"</nombre><iata>"YVQ"</iata><localización><ciudad>"Norman Wells"</ciudad><latitud>65.28160095214844</latitud><longitud>-126.7979965209961</longitud></localización></aeropuerto><aeropuerto país: "Canada"><nombre>"Vancouver International Airport"</nombre><iata>"YVR"</iata><localización><ciudad>"Vancouver"</ciudad><latitud>49.193901062</latitud><longitud>-123.183998108</longitud></localización></aeropuerto><aeropuerto país: "Canada"><nombre>"Buffalo Narrows Airport"</nombre><iata>"YVT"</iata><localización><ciudad>"Buffalo Narrows"</ciudad><latitud>55.8418998718</latitud><longitud>-108.417999268</longitud></localización></aeropuerto><aeropuerto país: "Canada"><nombre>"Wiarton Airport"</nombre><iata>"YVV"</iata><localización><ciudad>"Wiarton"</ciudad><latitud>44.7458</latitud><longitud>-81.107201</longitud></localización></aeropuerto><aeropuerto país: "Canada"><nombre>"Petawawa Airport"</nombre><iata>"YWA"</iata><localización><ciudad>"Petawawa"</ciudad><latitud>45.95220184326172</latitud><longitud>-77.31919860839844</longitud></localización></aeropuerto><aeropuerto país: "Canada"><nombre>"Winnipeg / James Armstrong Richardson International Airport"</nombre><iata>"YWG"</iata><localización><ciudad>"Winnipeg"</ciudad><latitud>49.909999847399995</latitud><longitud>-97.2398986816</longitud></localización></aeropuerto><aeropuerto país: "Canada"><nombre>"Wabush Airport"</nombre><iata>"YWK"</iata><localización><ciudad>"Wabush"</ciudad><latitud>52.92190170288086</latitud><longitud>-66.8644027709961</longitud></localización></aeropuerto><aeropuerto país: "Canada"><nombre>"Williams Lake Airport"</nombre><iata>"YWL"</iata><localización><ciudad>"Williams Lake"</ciudad><latitud>52.1831016541</latitud><longitud>-122.054000854</longitud></localización></aeropuerto><aeropuerto país: "Canada"><nombre>"Wrigley Airport"</nombre><iata>"YWY"</iata><localización><ciudad>"Wrigley"</ciudad><latitud>63.20940017700195</latitud><longitud>-123.43699645996094</longitud></localización></aeropuerto><aeropuerto país: "Canada"><nombre>"Cranbrook/Canadian Rockies International Airport"</nombre><iata>"YXC"</iata><localización><ciudad>"Cranbrook"</ciudad><latitud>49.610801696777</latitud><longitud>-115.78199768066</longitud></localización></aeropuerto><aeropuerto país: "Canada"><nombre>"Edmonton City Centre (Blatchford Field) Airport"</nombre><iata>"YXD"</iata><localización><ciudad>"Edmonton"</ciudad><latitud>53.5724983215</latitud><longitud>-113.521003723</longitud></localización></aeropuerto><aeropuerto país: "Canada"><nombre>"Saskatoon John G. Diefenbaker International Airport"</nombre><iata>"YXE"</iata><localización><ciudad>"Saskatoon"</ciudad><latitud>52.170799255371094</latitud><longitud>-106.69999694824219</longitud></localización></aeropuerto><aeropuerto país: "Canada"><nombre>"Medicine Hat Airport"</nombre><iata>"YXH"</iata><localización><ciudad>"Medicine Hat"</ciudad><latitud>50.01890182495117</latitud><longitud>-110.72100067138672</longitud></localización></aeropuerto><aeropuerto país: "Canada"><nombre>"Fort St John Airport"</nombre><iata>"YXJ"</iata><localización><ciudad>"Fort Saint John"</ciudad><latitud>56.23809814453125</latitud><longitud>-120.73999786376953</longitud></localización></aeropuerto><aeropuerto país: "Canada"><nombre>"Sioux Lookout Airport"</nombre><iata>"YXL"</iata><localización><ciudad>"Sioux Lookout"</ciudad><latitud>50.11389923095703</latitud><longitud>-91.9052963256836</longitud></localización></aeropuerto><aeropuerto país: "Canada"><nombre>"Pangnirtung Airport"</nombre><iata>"YXP"</iata><localización><ciudad>"Pangnirtung"</ciudad><latitud>66.1449966431</latitud><longitud>-65.71360015869999</longitud></localización></aeropuerto><aeropuerto país: "Canada"><nombre>"Earlton (Timiskaming Regional) Airport"</nombre><iata>"YXR"</iata><localización><ciudad>"Earlton"</ciudad><latitud>47.697400654599996</latitud><longitud>-79.8473453522</longitud></localización></aeropuerto><aeropuerto país: "Canada"><nombre>"Prince George Airport"</nombre><iata>"YXS"</iata><localización><ciudad>"Prince George"</ciudad><latitud>53.8894004822</latitud><longitud>-122.679000854</longitud></localización></aeropuerto><aeropuerto país: "Canada"><nombre>"Northwest Regional Airport Terrace-Kitimat"</nombre><iata>"YXT"</iata><localización><ciudad>"Terrace"</ciudad><latitud>54.468498</latitud><longitud>-128.576009</longitud></localización></aeropuerto><aeropuerto país: "Canada"><nombre>"London Airport"</nombre><iata>"YXU"</iata><localización><ciudad>"London"</ciudad><latitud>43.035599</latitud><longitud>-81.1539</longitud></localización></aeropuerto><aeropuerto país: "Canada"><nombre>"Abbotsford Airport"</nombre><iata>"YXX"</iata><localización><ciudad>"Abbotsford"</ciudad><latitud>49.025299072265625</latitud><longitud>-122.36100006103516</longitud></localización></aeropuerto><aeropuerto país: "Canada"><nombre>"Whitehorse / Erik Nielsen International Airport"</nombre><iata>"YXY"</iata><localización><ciudad>"Whitehorse"</ciudad><latitud>60.7095985413</latitud><longitud>-135.067001343</longitud></localización></aeropuerto><aeropuerto país: "Canada"><nombre>"North Bay Airport"</nombre><iata>"YYB"</iata><localización><ciudad>"North Bay"</ciudad><latitud>46.36360168457031</latitud><longitud>-79.42279815673828</longitud></localización></aeropuerto><aeropuerto país: "Canada"><nombre>"Calgary International Airport"</nombre><iata>"YYC"</iata><localización><ciudad>"Calgary"</ciudad><latitud>51.113899231</latitud><longitud>-114.019996643</longitud></localización></aeropuerto><aeropuerto país: "Canada"><nombre>"Smithers Airport"</nombre><iata>"YYD"</iata><localización><ciudad>"Smithers"</ciudad><latitud>54.82469940185547</latitud><longitud>-127.18299865722656</longitud></localización></aeropuerto><aeropuerto país: "Canada"><nombre>"Fort Nelson Airport"</nombre><iata>"YYE"</iata><localización><ciudad>"Fort Nelson"</ciudad><latitud>58.8363990784</latitud><longitud>-122.597000122</longitud></localización></aeropuerto><aeropuerto país: "Canada"><nombre>"Penticton Airport"</nombre><iata>"YYF"</iata><localización><ciudad>"Penticton"</ciudad><latitud>49.46310043334961</latitud><longitud>-119.60199737548828</longitud></localización></aeropuerto><aeropuerto país: "Canada"><nombre>"Charlottetown Airport"</nombre><iata>"YYG"</iata><localización><ciudad>"Charlottetown"</ciudad><latitud>46.290000915527344</latitud><longitud>-63.12110137939453</longitud></localización></aeropuerto><aeropuerto país: "Canada"><nombre>"Taloyoak Airport"</nombre><iata>"YYH"</iata><localización><ciudad>"Spence Bay"</ciudad><latitud>69.5466995239</latitud><longitud>-93.5766983032</longitud></localización></aeropuerto><aeropuerto país: "Canada"><nombre>"Victoria International Airport"</nombre><iata>"YYJ"</iata><localización><ciudad>"Victoria"</ciudad><latitud>48.646900177</latitud><longitud>-123.426002502</longitud></localización></aeropuerto><aeropuerto país: "Canada"><nombre>"Lynn Lake Airport"</nombre><iata>"YYL"</iata><localización><ciudad>"Lynn Lake"</ciudad><latitud>56.86389923095703</latitud><longitud>-101.07599639892578</longitud></localización></aeropuerto><aeropuerto país: "Canada"><nombre>"Swift Current Airport"</nombre><iata>"YYN"</iata><localización><ciudad>"Swift Current"</ciudad><latitud>50.291900634799994</latitud><longitud>-107.691001892</longitud></localización></aeropuerto><aeropuerto país: "Canada"><nombre>"Churchill Airport"</nombre><iata>"YYQ"</iata><localización><ciudad>"Churchill"</ciudad><latitud>58.739200592041016</latitud><longitud>-94.06500244140625</longitud></localización></aeropuerto><aeropuerto país: "Canada"><nombre>"Goose Bay Airport"</nombre><iata>"YYR"</iata><localización><ciudad>"Goose Bay"</ciudad><latitud>53.3191986084</latitud><longitud>-60.4258003235</longitud></localización></aeropuerto><aeropuerto país: "Canada"><nombre>"St. John's International Airport"</nombre><iata>"YYT"</iata><localización><ciudad>"St. John's"</ciudad><latitud>47.618598938</latitud><longitud>-52.7518997192</longitud></localización></aeropuerto><aeropuerto país: "Canada"><nombre>"Kapuskasing Airport"</nombre><iata>"YYU"</iata><localización><ciudad>"Kapuskasing"</ciudad><latitud>49.41389846801758</latitud><longitud>-82.46749877929688</longitud></localización></aeropuerto><aeropuerto país: "Canada"><nombre>"Armstrong Airport"</nombre><iata>"YYW"</iata><localización><ciudad>"Armstrong"</ciudad><latitud>50.29029846191406</latitud><longitud>-88.90969848632812</longitud></localización></aeropuerto><aeropuerto país: "Canada"><nombre>"Mont Joli Airport"</nombre><iata>"YYY"</iata><localización><ciudad>"Mont Joli"</ciudad><latitud>48.60860061645508</latitud><longitud>-68.20809936523438</longitud></localización></aeropuerto><aeropuerto país: "Canada"><nombre>"Lester B. Pearson International Airport"</nombre><iata>"YYZ"</iata><localización><ciudad>"Toronto"</ciudad><latitud>43.6772003174</latitud><longitud>-79.63059997559999</longitud></localización></aeropuerto><aeropuerto país: "Canada"><nombre>"Downsview Airport"</nombre><iata>"YZD"</iata><localización><ciudad>"Toronto"</ciudad><latitud>43.74250030517578</latitud><longitud>-79.4655990600586</longitud></localización></aeropuerto><aeropuerto país: "Canada"><nombre>"Gore Bay Manitoulin Airport"</nombre><iata>"YZE"</iata><localización><ciudad>"Gore Bay"</ciudad><latitud>45.88529968261719</latitud><longitud>-82.56780242919922</longitud></localización></aeropuerto><aeropuerto país: "Canada"><nombre>"Yellowknife Airport"</nombre><iata>"YZF"</iata><localización><ciudad>"Yellowknife"</ciudad><latitud>62.462799072265625</latitud><longitud>-114.44000244140625</longitud></localización></aeropuerto><aeropuerto país: "Canada"><nombre>"Slave Lake Airport"</nombre><iata>"YZH"</iata><localización><ciudad>"Slave Lake"</ciudad><latitud>55.2930984497</latitud><longitud>-114.777000427</longitud></localización></aeropuerto><aeropuerto país: "Canada"><nombre>"Sandspit Airport"</nombre><iata>"YZP"</iata><localización><ciudad>"Sandspit"</ciudad><latitud>53.25429916379999</latitud><longitud>-131.813995361</longitud></localización></aeropuerto><aeropuerto país: "Canada"><nombre>"Chris Hadfield Airport"</nombre><iata>"YZR"</iata><localización><ciudad>"Sarnia"</ciudad><latitud>42.9994010925293</latitud><longitud>-82.30889892578125</longitud></localización></aeropuerto><aeropuerto país: "Canada"><nombre>"Port Hardy Airport"</nombre><iata>"YZT"</iata><localización><ciudad>"Port Hardy"</ciudad><latitud>50.680599212646484</latitud><longitud>-127.36699676513672</longitud></localización></aeropuerto><aeropuerto país: "Canada"><nombre>"Whitecourt Airport"</nombre><iata>"YZU"</iata><localización><ciudad>"Whitecourt"</ciudad><latitud>54.14390182495117</latitud><longitud>-115.78700256347656</longitud></localización></aeropuerto><aeropuerto país: "Canada"><nombre>"Sept-Îles Airport"</nombre><iata>"YZV"</iata><localización><ciudad>"Sept-iles"</ciudad><latitud>50.22330093383789</latitud><longitud>-66.2656021118164</longitud></localización></aeropuerto><aeropuerto país: "Canada"><nombre>"Teslin Airport"</nombre><iata>"YZW"</iata><localización><ciudad>"Teslin"</ciudad><latitud>60.17279815673828</latitud><longitud>-132.7429962158203</longitud></localización></aeropuerto><aeropuerto país: "Canada"><nombre>"CFB Greenwood"</nombre><iata>"YZX"</iata><localización><ciudad>"Greenwood"</ciudad><latitud>44.98440170288086</latitud><longitud>-64.91690063476562</longitud></localización></aeropuerto><aeropuerto país: "Canada"><nombre>"Faro Airport"</nombre><iata>"ZFA"</iata><localización><ciudad>"Faro"</ciudad><latitud>62.20750045776367</latitud><longitud>-133.37600708007812</longitud></localización></aeropuerto><aeropuerto país: "Canada"><nombre>"Fort Mcpherson Airport"</nombre><iata>"ZFM"</iata><localización><ciudad>"Fort Mcpherson"</ciudad><latitud>67.40750122070312</latitud><longitud>-134.86099243164062</longitud></localización></aeropuerto><aeropuerto país: "Algeria"><nombre>"Blida Airport"</nombre><iata>\N</iata><localización><ciudad>"Blida"</ciudad><latitud>36.50360107421875</latitud><longitud>2.8141698837280273</longitud></localización></aeropuerto><aeropuerto país: "Algeria"><nombre>"Bou Saada Airport"</nombre><iata>\N</iata><localización><ciudad>"Bou Saada"</ciudad><latitud>35.33250045776367</latitud><longitud>4.206389904022217</longitud></localización></aeropuerto><aeropuerto país: "Algeria"><nombre>"Soummam Airport"</nombre><iata>"BJA"</iata><localización><ciudad>"Bejaja"</ciudad><latitud>36.7120018005</latitud><longitud>5.0699200630200005</longitud></localización></aeropuerto><aeropuerto país: "Algeria"><nombre>"Houari Boumediene Airport"</nombre><iata>"ALG"</iata><localización><ciudad>"Algier"</ciudad><latitud>36.691001892089844</latitud><longitud>3.215409994125366</longitud></localización></aeropuerto><aeropuerto país: "Algeria"><nombre>"Djanet Inedbirene Airport"</nombre><iata>"DJG"</iata><localización><ciudad>"Djanet"</ciudad><latitud>24.292800903299998</latitud><longitud>9.45244026184</longitud></localización></aeropuerto><aeropuerto país: "Algeria"><nombre>"Boufarik Airport"</nombre><iata>"QFD"</iata><localización><ciudad>"Boufarik"</ciudad><latitud>36.545799</latitud><longitud>2.87611</longitud></localización></aeropuerto><aeropuerto país: "Algeria"><nombre>"Reggane Airport"</nombre><iata>\N</iata><localización><ciudad>"Reggan"</ciudad><latitud>26.710100173950195</latitud><longitud>0.2856470048427582</longitud></localización></aeropuerto><aeropuerto país: "Algeria"><nombre>"Illizi Takhamalt Airport"</nombre><iata>"VVZ"</iata><localización><ciudad>"Illizi"</ciudad><latitud>26.7234992981</latitud><longitud>8.62265014648</longitud></localización></aeropuerto><aeropuerto país: "Algeria"><nombre>"Ain Oussera Airport"</nombre><iata>\N</iata><localización><ciudad>"Ain Oussera"</ciudad><latitud>35.52539825439453</latitud><longitud>2.8787100315093994</longitud></localización></aeropuerto><aeropuerto país: "Algeria"><nombre>"Aguenar – Hadj Bey Akhamok Airport"</nombre><iata>"TMR"</iata><localización><ciudad>"Tamanrasset"</ciudad><latitud>22.8115005493</latitud><longitud>5.45107984543</longitud></localización></aeropuerto><aeropuerto país: "Algeria"><nombre>"Jijel Ferhat Abbas Airport"</nombre><iata>"GJL"</iata><localización><ciudad>"Jijel"</ciudad><latitud>36.7951011658</latitud><longitud>5.87361001968</longitud></localización></aeropuerto><aeropuerto país: "Algeria"><nombre>"Mecheria Airport"</nombre><iata>\N</iata><localización><ciudad>"Mecheria"</ciudad><latitud>33.535900116</latitud><longitud>-0.242353007197</longitud></localización></aeropuerto><aeropuerto país: "Algeria"><nombre>"Relizane Airport"</nombre><iata>\N</iata><localización><ciudad>"Relizane"</ciudad><latitud>35.752201080322266</latitud><longitud>0.6262720227241516</longitud></localización></aeropuerto><aeropuerto país: "Algeria"><nombre>"Annaba Airport"</nombre><iata>"AAE"</iata><localización><ciudad>"Annaba"</ciudad><latitud>36.822200775146484</latitud><longitud>7.809169769287109</longitud></localización></aeropuerto><aeropuerto país: "Algeria"><nombre>"Mohamed Boudiaf International Airport"</nombre><iata>"CZL"</iata><localización><ciudad>"Constantine"</ciudad><latitud>36.2760009765625</latitud><longitud>6.620389938354492</longitud></localización></aeropuerto><aeropuerto país: "Algeria"><nombre>"Cheikh Larbi Tébessi Airport"</nombre><iata>"TEE"</iata><localización><ciudad>"Tebessa"</ciudad><latitud>35.4315986633</latitud><longitud>8.12071990967</longitud></localización></aeropuerto><aeropuerto país: "Algeria"><nombre>"Hassi R'Mel Airport"</nombre><iata>"HRM"</iata><localización><ciudad>"Tilrempt"</ciudad><latitud>32.93040084838867</latitud><longitud>3.311539888381958</longitud></localización></aeropuerto><aeropuerto país: "Algeria"><nombre>"Bou Chekif Airport"</nombre><iata>"TID"</iata><localización><ciudad>"Tiaret"</ciudad><latitud>35.3410987854</latitud><longitud>1.46315002441</longitud></localización></aeropuerto><aeropuerto país: "Algeria"><nombre>"Bou Sfer Airport"</nombre><iata>\N</iata><localización><ciudad>"Bou Sfer"</ciudad><latitud>35.73540115356445</latitud><longitud>-0.8053889870643616</longitud></localización></aeropuerto><aeropuerto país: "Algeria"><nombre>"Tindouf Airport"</nombre><iata>"TIN"</iata><localización><ciudad>"Tindouf"</ciudad><latitud>27.7003993988</latitud><longitud>-8.167099952700001</longitud></localización></aeropuerto><aeropuerto país: "Algeria"><nombre>"Ech Cheliff Airport"</nombre><iata>"QAS"</iata><localización><ciudad>"Ech-cheliff"</ciudad><latitud>36.2126998901</latitud><longitud>1.33176994324</longitud></localización></aeropuerto><aeropuerto país: "Algeria"><nombre>"Tafaraoui Airport"</nombre><iata>"TAF"</iata><localización><ciudad>"Oran"</ciudad><latitud>35.54240036010742</latitud><longitud>-0.5322780013084412</longitud></localización></aeropuerto><aeropuerto país: "Algeria"><nombre>"Zenata – Messali El Hadj Airport"</nombre><iata>"TLM"</iata><localización><ciudad>"Tlemcen"</ciudad><latitud>35.0167007446</latitud><longitud>-1.45000004768</longitud></localización></aeropuerto><aeropuerto país: "Algeria"><nombre>"Es Senia Airport"</nombre><iata>"ORN"</iata><localización><ciudad>"Oran"</ciudad><latitud>35.6239013672</latitud><longitud>-0.6211829781529999</longitud></localización></aeropuerto><aeropuerto país: "Algeria"><nombre>"Sidi Bel Abbes Airport"</nombre><iata>\N</iata><localización><ciudad>"Sidi Bel Abbes"</ciudad><latitud>35.1717987061</latitud><longitud>-0.593275010586</longitud></localización></aeropuerto><aeropuerto país: "Algeria"><nombre>"Ghriss Airport"</nombre><iata>"MUW"</iata><localización><ciudad>"Ghriss"</ciudad><latitud>35.207698822021484</latitud><longitud>0.14714199304580688</longitud></localización></aeropuerto><aeropuerto país: "Algeria"><nombre>"Touat Cheikh Sidi Mohamed Belkebir Airport"</nombre><iata>"AZR"</iata><localización><ciudad>"Adrar"</ciudad><latitud>27.837600708007812</latitud><longitud>-0.18641400337219238</longitud></localización></aeropuerto><aeropuerto país: "Algeria"><nombre>"Biskra Airport"</nombre><iata>"BSK"</iata><localización><ciudad>"Biskra"</ciudad><latitud>34.793300628699996</latitud><longitud>5.73823022842</longitud></localización></aeropuerto><aeropuerto país: "Algeria"><nombre>"El Golea Airport"</nombre><iata>"ELG"</iata><localización><ciudad>"El Golea"</ciudad><latitud>30.571300506591797</latitud><longitud>2.8595900535583496</longitud></localización></aeropuerto><aeropuerto país: "Algeria"><nombre>"Noumérat - Moufdi Zakaria Airport"</nombre><iata>"GHA"</iata><localización><ciudad>"Ghardaia"</ciudad><latitud>32.38410186767578</latitud><longitud>3.794110059738159</longitud></localización></aeropuerto><aeropuerto país: "Algeria"><nombre>"Oued Irara Airport"</nombre><iata>"HME"</iata><localización><ciudad>"Hassi Messaoud"</ciudad><latitud>31.673000335699996</latitud><longitud>6.140439987180001</longitud></localización></aeropuerto><aeropuerto país: "Algeria"><nombre>"In Salah Airport"</nombre><iata>"INZ"</iata><localización><ciudad>"In Salah"</ciudad><latitud>27.250999450699997</latitud><longitud>2.51202011108</longitud></localización></aeropuerto><aeropuerto país: "Algeria"><nombre>"Touggourt Sidi Madhi Airport"</nombre><iata>"TGR"</iata><localización><ciudad>"Touggourt"</ciudad><latitud>33.06779861450195</latitud><longitud>6.088669776916504</longitud></localización></aeropuerto><aeropuerto país: "Algeria"><nombre>"Laghouat Airport"</nombre><iata>"LOO"</iata><localización><ciudad>"Laghouat"</ciudad><latitud>33.764400482199996</latitud><longitud>2.92833995819</longitud></localización></aeropuerto><aeropuerto país: "Algeria"><nombre>"Timimoun Airport"</nombre><iata>"TMX"</iata><localización><ciudad>"Timimoun"</ciudad><latitud>29.2371006012</latitud><longitud>0.276033014059</longitud></localización></aeropuerto><aeropuerto país: "Algeria"><nombre>"Ain el Beida Airport"</nombre><iata>"OGX"</iata><localización><ciudad>"Ouargla"</ciudad><latitud>31.917200088500977</latitud><longitud>5.412779808044434</longitud></localización></aeropuerto><aeropuerto país: "Algeria"><nombre>"In Aménas Airport"</nombre><iata>"IAM"</iata><localización><ciudad>"Zarzaitine"</ciudad><latitud>28.0515003204</latitud><longitud>9.64291000366</longitud></localización></aeropuerto><aeropuerto país: "Benin"><nombre>"Cadjehoun Airport"</nombre><iata>"COO"</iata><localización><ciudad>"Cotonou"</ciudad><latitud>6.357230186462402</latitud><longitud>2.384350061416626</longitud></localización></aeropuerto><aeropuerto país: "Burkina Faso"><nombre>"Ouagadougou Airport"</nombre><iata>"OUA"</iata><localización><ciudad>"Ouagadougou"</ciudad><latitud>12.35319995880127</latitud><longitud>-1.5124200582504272</longitud></localización></aeropuerto><aeropuerto país: "Burkina Faso"><nombre>"Bobo Dioulasso Airport"</nombre><iata>"BOY"</iata><localización><ciudad>"Bobo-dioulasso"</ciudad><latitud>11.160099983215332</latitud><longitud>-4.33096981048584</longitud></localización></aeropuerto><aeropuerto país: "Ghana"><nombre>"Kotoka International Airport"</nombre><iata>"ACC"</iata><localización><ciudad>"Accra"</ciudad><latitud>5.605189800262451</latitud><longitud>-0.16678600013256073</longitud></localización></aeropuerto><aeropuerto país: "Ghana"><nombre>"Tamale Airport"</nombre><iata>"TML"</iata><localización><ciudad>"Tamale"</ciudad><latitud>9.55718994140625</latitud><longitud>-0.8632140159606934</longitud></localización></aeropuerto><aeropuerto país: "Ghana"><nombre>"Wa Airport"</nombre><iata>\N</iata><localización><ciudad>"Wa"</ciudad><latitud>10.0826997756958</latitud><longitud>-2.507689952850342</longitud></localización></aeropuerto><aeropuerto país: "Ghana"><nombre>"Sunyani Airport"</nombre><iata>"NYI"</iata><localización><ciudad>"Sunyani"</ciudad><latitud>7.361830234527588</latitud><longitud>-2.3287599086761475</longitud></localización></aeropuerto><aeropuerto país: "Ghana"><nombre>"Takoradi Airport"</nombre><iata>"TKD"</iata><localización><ciudad>"Takoradi"</ciudad><latitud>4.896059989929199</latitud><longitud>-1.7747600078582764</longitud></localización></aeropuerto><aeropuerto país: "Cote d'Ivoire"><nombre>"Port Bouet Airport"</nombre><iata>"ABJ"</iata><localización><ciudad>"Abidjan"</ciudad><latitud>5.261390209197998</latitud><longitud>-3.9262900352478027</longitud></localización></aeropuerto><aeropuerto país: "Cote d'Ivoire"><nombre>"Bouaké Airport"</nombre><iata>"BYK"</iata><localización><ciudad>"Bouake"</ciudad><latitud>7.738800048828125</latitud><longitud>-5.073669910430908</longitud></localización></aeropuerto><aeropuerto país: "Cote d'Ivoire"><nombre>"Daloa Airport"</nombre><iata>"DJO"</iata><localización><ciudad>"Daloa"</ciudad><latitud>6.792809963226318</latitud><longitud>-6.473189830780029</longitud></localización></aeropuerto><aeropuerto país: "Cote d'Ivoire"><nombre>"Korhogo Airport"</nombre><iata>"HGO"</iata><localización><ciudad>"Korhogo"</ciudad><latitud>9.38718032837</latitud><longitud>-5.55666017532</longitud></localización></aeropuerto><aeropuerto país: "Cote d'Ivoire"><nombre>"Man Airport"</nombre><iata>"MJC"</iata><localización><ciudad>"Man"</ciudad><latitud>7.272069931030273</latitud><longitud>-7.58735990524292</longitud></localización></aeropuerto><aeropuerto país: "Cote d'Ivoire"><nombre>"San Pedro Airport"</nombre><iata>"SPY"</iata><localización><ciudad>"San Pedro"</ciudad><latitud>4.746719837188721</latitud><longitud>-6.660820007324219</longitud></localización></aeropuerto><aeropuerto país: "Cote d'Ivoire"><nombre>"Yamoussoukro Airport"</nombre><iata>"ASK"</iata><localización><ciudad>"Yamoussoukro"</ciudad><latitud>6.9031701088</latitud><longitud>-5.36558008194</longitud></localización></aeropuerto><aeropuerto país: "Nigeria"><nombre>"Nnamdi Azikiwe International Airport"</nombre><iata>"ABV"</iata><localización><ciudad>"Abuja"</ciudad><latitud>9.006790161132812</latitud><longitud>7.263169765472412</longitud></localización></aeropuerto><aeropuerto país: "Nigeria"><nombre>"Akure Airport"</nombre><iata>"AKR"</iata><localización><ciudad>"Akure"</ciudad><latitud>7.246739864349365</latitud><longitud>5.3010101318359375</longitud></localización></aeropuerto><aeropuerto país: "Nigeria"><nombre>"Benin Airport"</nombre><iata>"BNI"</iata><localización><ciudad>"Benin"</ciudad><latitud>6.316979885101318</latitud><longitud>5.5995001792907715</longitud></localización></aeropuerto><aeropuerto país: "Nigeria"><nombre>"Margaret Ekpo International Airport"</nombre><iata>"CBQ"</iata><localización><ciudad>"Calabar"</ciudad><latitud>4.976019859313965</latitud><longitud>8.347200393676758</longitud></localización></aeropuerto><aeropuerto país: "Nigeria"><nombre>"Akanu Ibiam International Airport"</nombre><iata>"ENU"</iata><localización><ciudad>"Enugu"</ciudad><latitud>6.474269866943359</latitud><longitud>7.561960220336914</longitud></localización></aeropuerto><aeropuerto país: "Nigeria"><nombre>"Gusau Airport"</nombre><iata>"QUS"</iata><localización><ciudad>"Gusau"</ciudad><latitud>12.171699523925781</latitud><longitud>6.696109771728516</longitud></localización></aeropuerto><aeropuerto país: "Nigeria"><nombre>"Ibadan Airport"</nombre><iata>"IBA"</iata><localización><ciudad>"Ibadan"</ciudad><latitud>7.362460136413574</latitud><longitud>3.97832989692688</longitud></localización></aeropuerto><aeropuerto país: "Nigeria"><nombre>"Ilorin International Airport"</nombre><iata>"ILR"</iata><localización><ciudad>"Ilorin"</ciudad><latitud>8.440210342407227</latitud><longitud>4.493919849395752</longitud></localización></aeropuerto><aeropuerto país: "Nigeria"><nombre>"Yakubu Gowon Airport"</nombre><iata>"JOS"</iata><localización><ciudad>"Jos"</ciudad><latitud>9.639829635620117</latitud><longitud>8.869050025939941</longitud></localización></aeropuerto><aeropuerto país: "Nigeria"><nombre>"Kaduna Airport"</nombre><iata>"KAD"</iata><localización><ciudad>"Kaduna"</ciudad><latitud>10.696000099182129</latitud><longitud>7.320109844207764</longitud></localización></aeropuerto><aeropuerto país: "Nigeria"><nombre>"Mallam Aminu International Airport"</nombre><iata>"KAN"</iata><localización><ciudad>"Kano"</ciudad><latitud>12.047599792480469</latitud><longitud>8.524620056152344</longitud></localización></aeropuerto><aeropuerto país: "Nigeria"><nombre>"Maiduguri International Airport"</nombre><iata>"MIU"</iata><localización><ciudad>"Maiduguri"</ciudad><latitud>11.855299949645996</latitud><longitud>13.080900192260742</longitud></localización></aeropuerto><aeropuerto país: "Nigeria"><nombre>"Makurdi Airport"</nombre><iata>"MDI"</iata><localización><ciudad>"Makurdi"</ciudad><latitud>7.7038798332214355</latitud><longitud>8.613940238952637</longitud></localización></aeropuerto><aeropuerto país: "Nigeria"><nombre>"Murtala Muhammed International Airport"</nombre><iata>"LOS"</iata><localización><ciudad>"Lagos"</ciudad><latitud>6.5773701667785645</latitud><longitud>3.321160078048706</longitud></localización></aeropuerto><aeropuerto país: "Nigeria"><nombre>"Minna Airport"</nombre><iata>"MXJ"</iata><localización><ciudad>"Minna"</ciudad><latitud>9.652170181274414</latitud><longitud>6.462259769439697</longitud></localización></aeropuerto><aeropuerto país: "Nigeria"><nombre>"Port Harcourt International Airport"</nombre><iata>"PHC"</iata><localización><ciudad>"Port Hartcourt"</ciudad><latitud>5.0154900550842285</latitud><longitud>6.94959020614624</longitud></localización></aeropuerto><aeropuerto país: "Nigeria"><nombre>"Sadiq Abubakar III International Airport"</nombre><iata>"SKO"</iata><localización><ciudad>"Sokoto"</ciudad><latitud>12.916299819946289</latitud><longitud>5.207190036773682</longitud></localización></aeropuerto><aeropuerto país: "Nigeria"><nombre>"Yola Airport"</nombre><iata>"YOL"</iata><localización><ciudad>"Yola"</ciudad><latitud>9.257550239562988</latitud><longitud>12.430399894714355</longitud></localización></aeropuerto><aeropuerto país: "Nigeria"><nombre>"Zaria Airport"</nombre><iata>"ZAR"</iata><localización><ciudad>"Zaria"</ciudad><latitud>11.130200386047363</latitud><longitud>7.685810089111328</longitud></localización></aeropuerto><aeropuerto país: "Niger"><nombre>"Maradi Airport"</nombre><iata>"MFQ"</iata><localización><ciudad>"Maradi"</ciudad><latitud>13.5024995803833</latitud><longitud>7.1267499923706055</longitud></localización></aeropuerto><aeropuerto país: "Niger"><nombre>"Diori Hamani International Airport"</nombre><iata>"NIM"</iata><localización><ciudad>"Niamey"</ciudad><latitud>13.481499671936035</latitud><longitud>2.183609962463379</longitud></localización></aeropuerto><aeropuerto país: "Niger"><nombre>"Tahoua Airport"</nombre><iata>"THZ"</iata><localización><ciudad>"Tahoua"</ciudad><latitud>14.875699996948242</latitud><longitud>5.265359878540039</longitud></localización></aeropuerto><aeropuerto país: "Niger"><nombre>"Mano Dayak International Airport"</nombre><iata>"AJY"</iata><localización><ciudad>"Agadez"</ciudad><latitud>16.965999603271484</latitud><longitud>8.000109672546387</longitud></localización></aeropuerto><aeropuerto país: "Niger"><nombre>"Dirkou Airport"</nombre><iata>\N</iata><localización><ciudad>"Dirkou"</ciudad><latitud>18.968700408935547</latitud><longitud>12.86870002746582</longitud></localización></aeropuerto><aeropuerto país: "Niger"><nombre>"Diffa Airport"</nombre><iata>\N</iata><localización><ciudad>"Diffa"</ciudad><latitud>13.372900009155273</latitud><longitud>12.626700401306152</longitud></localización></aeropuerto><aeropuerto país: "Niger"><nombre>"Zinder Airport"</nombre><iata>"ZND"</iata><localización><ciudad>"Zinder"</ciudad><latitud>13.779000282287598</latitud><longitud>8.983759880065918</longitud></localización></aeropuerto><aeropuerto país: "Tunisia"><nombre>"Monastir Habib Bourguiba International Airport"</nombre><iata>"MIR"</iata><localización><ciudad>"Monastir"</ciudad><latitud>35.75809860229492</latitud><longitud>10.75469970703125</longitud></localización></aeropuerto><aeropuerto país: "Tunisia"><nombre>"Tunis Carthage International Airport"</nombre><iata>"TUN"</iata><localización><ciudad>"Tunis"</ciudad><latitud>36.85100173950195</latitud><longitud>10.22719955444336</longitud></localización></aeropuerto><aeropuerto país: "Tunisia"><nombre>"Sidi Ahmed Air Base"</nombre><iata>\N</iata><localización><ciudad>"Bizerte"</ciudad><latitud>37.2453994751</latitud><longitud>9.79144954681</longitud></localización></aeropuerto><aeropuerto país: "Tunisia"><nombre>"Remada Air Base"</nombre><iata>\N</iata><localización><ciudad>"Remada"</ciudad><latitud>32.30619812011719</latitud><longitud>10.382100105285645</longitud></localización></aeropuerto><aeropuerto país: "Tunisia"><nombre>"Gafsa Ksar International Airport"</nombre><iata>"GAF"</iata><localización><ciudad>"Gafsa"</ciudad><latitud>34.422000885009766</latitud><longitud>8.822500228881836</longitud></localización></aeropuerto><aeropuerto país: "Tunisia"><nombre>"Gabès Matmata International Airport"</nombre><iata>"GAE"</iata><localización><ciudad>"Gabes"</ciudad><latitud>33.87689971923828</latitud><longitud>10.103300094604492</longitud></localización></aeropuerto><aeropuerto país: "Tunisia"><nombre>"Borj El Amri Airport"</nombre><iata>\N</iata><localización><ciudad>"Bordj El Amri"</ciudad><latitud>36.72129821777344</latitud><longitud>9.94314956665039</longitud></localización></aeropuerto><aeropuerto país: "Tunisia"><nombre>"Djerba Zarzis International Airport"</nombre><iata>"DJE"</iata><localización><ciudad>"Djerba"</ciudad><latitud>33.875</latitud><longitud>10.775500297546387</longitud></localización></aeropuerto><aeropuerto país: "Tunisia"><nombre>"El Borma Airport"</nombre><iata>"EBM"</iata><localización><ciudad>"El Borma"</ciudad><latitud>31.704299926757812</latitud><longitud>9.254619598388672</longitud></localización></aeropuerto><aeropuerto país: "Tunisia"><nombre>"Sfax Thyna International Airport"</nombre><iata>"SFA"</iata><localización><ciudad>"Sfax"</ciudad><latitud>34.71799850463867</latitud><longitud>10.690999984741211</longitud></localización></aeropuerto><aeropuerto país: "Tunisia"><nombre>"Tozeur Nefta International Airport"</nombre><iata>"TOE"</iata><localización><ciudad>"Tozeur"</ciudad><latitud>33.939701080322266</latitud><longitud>8.110560417175293</longitud></localización></aeropuerto><aeropuerto país: "Togo"><nombre>"Niamtougou International Airport"</nombre><iata>"LRL"</iata><localización><ciudad>"Niatougou"</ciudad><latitud>9.767330169677734</latitud><longitud>1.091249942779541</longitud></localización></aeropuerto><aeropuerto país: "Togo"><nombre>"Lomé-Tokoin Airport"</nombre><iata>"LFW"</iata><localización><ciudad>"Lome"</ciudad><latitud>6.165609836578369</latitud><longitud>1.2545100450515747</longitud></localización></aeropuerto><aeropuerto país: "Belgium"><nombre>"Antwerp International Airport (Deurne)"</nombre><iata>"ANR"</iata><localización><ciudad>"Antwerp"</ciudad><latitud>51.1893997192</latitud><longitud>4.46027994156</longitud></localización></aeropuerto><aeropuerto país: "Belgium"><nombre>"Beauvechain Air Base"</nombre><iata>\N</iata><localización><ciudad>"Beauvechain"</ciudad><latitud>50.75859832763672</latitud><longitud>4.768330097198486</longitud></localización></aeropuerto><aeropuerto país: "Belgium"><nombre>"Kleine Brogel Air Base"</nombre><iata>\N</iata><localización><ciudad>"Kleine Brogel"</ciudad><latitud>51.168301</latitud><longitud>5.47</longitud></localización></aeropuerto><aeropuerto país: "Belgium"><nombre>"Brussels Airport"</nombre><iata>"BRU"</iata><localización><ciudad>"Brussels"</ciudad><latitud>50.901401519800004</latitud><longitud>4.48443984985</longitud></localización></aeropuerto><aeropuerto país: "Belgium"><nombre>"Jehonville Air Base"</nombre><iata>\N</iata><localización><ciudad>"Bertrix"</ciudad><latitud>49.891700744628906</latitud><longitud>5.2238898277282715</longitud></localización></aeropuerto><aeropuerto país: "Belgium"><nombre>"Brussels South Charleroi Airport"</nombre><iata>"CRL"</iata><localización><ciudad>"Charleroi"</ciudad><latitud>50.459201812699995</latitud><longitud>4.45382022858</longitud></localización></aeropuerto><aeropuerto país: "Belgium"><nombre>"Chièvres Air Base"</nombre><iata>\N</iata><localización><ciudad>"Chievres"</ciudad><latitud>50.575801849365234</latitud><longitud>3.8310000896453857</longitud></localización></aeropuerto><aeropuerto país: "Belgium"><nombre>"Koksijde Air Base"</nombre><iata>\N</iata><localización><ciudad>"Koksijde"</ciudad><latitud>51.090301513671875</latitud><longitud>2.652780055999756</longitud></localización></aeropuerto><aeropuerto país: "Belgium"><nombre>"Florennes Air Base"</nombre><iata>\N</iata><localización><ciudad>"Florennes"</ciudad><latitud>50.2433013916</latitud><longitud>4.64583015442</longitud></localización></aeropuerto><aeropuerto país: "Belgium"><nombre>"Wevelgem Airport"</nombre><iata>"QKT"</iata><localización><ciudad>"Kortrijk-vevelgem"</ciudad><latitud>50.817199707</latitud><longitud>3.20472002029</longitud></localización></aeropuerto><aeropuerto país: "Belgium"><nombre>"Liège Airport"</nombre><iata>"LGG"</iata><localización><ciudad>"Liege"</ciudad><latitud>50.63740158081055</latitud><longitud>5.443220138549805</longitud></localización></aeropuerto><aeropuerto país: "Belgium"><nombre>"Ostend-Bruges International Airport"</nombre><iata>"OST"</iata><localización><ciudad>"Ostend"</ciudad><latitud>51.198898315399994</latitud><longitud>2.8622200489</longitud></localización></aeropuerto><aeropuerto país: "Belgium"><nombre>"Zutendaal Air Base"</nombre><iata>\N</iata><localización><ciudad>"Zutendaal"</ciudad><latitud>50.9474983215332</latitud><longitud>5.590559959411621</longitud></localización></aeropuerto><aeropuerto país: "Belgium"><nombre>"Limburg Regional Airport"</nombre><iata>\N</iata><localización><ciudad>"Sint-truiden"</ciudad><latitud>50.791900634799994</latitud><longitud>5.20167016983</longitud></localización></aeropuerto><aeropuerto país: "Belgium"><nombre>"Saint Hubert Air Base"</nombre><iata>\N</iata><localización><ciudad>"St.-hubert"</ciudad><latitud>50.034400939941406</latitud><longitud>5.440810203552246</longitud></localización></aeropuerto><aeropuerto país: "Belgium"><nombre>"Ursel Air Base"</nombre><iata>\N</iata><localización><ciudad>"Ursel"</ciudad><latitud>51.14419937133789</latitud><longitud>3.475559949874878</longitud></localización></aeropuerto><aeropuerto país: "Belgium"><nombre>"Weelde Air Base"</nombre><iata>\N</iata><localización><ciudad>"Weelde"</ciudad><latitud>51.394798278808594</latitud><longitud>4.9601898193359375</longitud></localización></aeropuerto><aeropuerto país: "Belgium"><nombre>"Oostmalle Air Base"</nombre><iata>\N</iata><localización><ciudad>"Zoersel"</ciudad><latitud>51.264702</latitud><longitud>4.75333</longitud></localización></aeropuerto><aeropuerto país: "Germany"><nombre>"Bautzen Airport"</nombre><iata>\N</iata><localización><ciudad>"Bautzen"</ciudad><latitud>51.19361114501953</latitud><longitud>14.519721984863281</longitud></localización></aeropuerto><aeropuerto país: "Germany"><nombre>"Altenburg-Nobitz Airport"</nombre><iata>"AOC"</iata><localización><ciudad>"Altenburg"</ciudad><latitud>50.9819450378418</latitud><longitud>12.506388664245605</longitud></localización></aeropuerto><aeropuerto país: "Germany"><nombre>"Dessau Airport"</nombre><iata>\N</iata><localización><ciudad>"Dessau"</ciudad><latitud>51.831693541</latitud><longitud>12.1909618378</longitud></localización></aeropuerto><aeropuerto país: "Germany"><nombre>"Eisenhüttenstadt Airport"</nombre><iata>\N</iata><localización><ciudad>"Eisenhuettenstadt"</ciudad><latitud>52.195856</latitud><longitud>14.58753</longitud></localización></aeropuerto><aeropuerto país: "Germany"><nombre>"Großenhain Airport"</nombre><iata>\N</iata><localización><ciudad>"Suhl"</ciudad><latitud>51.30805587768555</latitud><longitud>13.555556297302246</longitud></localización></aeropuerto><aeropuerto país: "Germany"><nombre>"Merseburg Airport"</nombre><iata>\N</iata><localización><ciudad>"Muehlhausen"</ciudad><latitud>51.3630556</latitud><longitud>11.9408333</longitud></localización></aeropuerto><aeropuerto país: "Germany"><nombre>"Halle-Oppin Airport"</nombre><iata>\N</iata><localización><ciudad>"Halle"</ciudad><latitud>51.552223</latitud><longitud>12.053889</longitud></localización></aeropuerto><aeropuerto país: "Germany"><nombre>"Riesa-Göhlis Airport"</nombre><iata>\N</iata><localización><ciudad>"Riesa"</ciudad><latitud>51.2936096191</latitud><longitud>13.3561105728</longitud></localización></aeropuerto><aeropuerto país: "Germany"><nombre>"Rechlin-Lärz Airport"</nombre><iata>\N</iata><localización><ciudad>"Rechlin-laerz"</ciudad><latitud>53.306388855</latitud><longitud>12.7522220612</longitud></localización></aeropuerto><aeropuerto país: "Germany"><nombre>"Strausberg Airport"</nombre><iata>\N</iata><localización><ciudad>"Strausberg"</ciudad><latitud>52.5805549621582</latitud><longitud>13.916666984558105</longitud></localización></aeropuerto><aeropuerto país: "Germany"><nombre>"Schönhagen Airport"</nombre><iata>\N</iata><localización><ciudad>"Schoenhagen"</ciudad><latitud>52.2036094666</latitud><longitud>13.1563892365</longitud></localización></aeropuerto><aeropuerto país: "Germany"><nombre>"Barth Airport"</nombre><iata>"BBH"</iata><localización><ciudad>"Barth"</ciudad><latitud>54.338253</latitud><longitud>12.710515</longitud></localización></aeropuerto><aeropuerto país: "Germany"><nombre>"Jena-Schöngleina Airport"</nombre><iata>\N</iata><localización><ciudad>"Jena"</ciudad><latitud>50.915279388427734</latitud><longitud>11.714444160461426</longitud></localización></aeropuerto><aeropuerto país: "Germany"><nombre>"Kyritz Airport"</nombre><iata>\N</iata><localización><ciudad>"Kyritz"</ciudad><latitud>52.918888092041016</latitud><longitud>12.425277709960938</longitud></localización></aeropuerto><aeropuerto país: "Germany"><nombre>"Magdeburg \"City\" Airport"</nombre><iata>\N</iata><localización><ciudad>"Magdeburg"</ciudad><latitud>52.073612</latitud><longitud>11.626389</longitud></localización></aeropuerto><aeropuerto país: "Germany"><nombre>"Rothenburg/Görlitz Airport"</nombre><iata>\N</iata><localización><ciudad>"Rothenburg/ol"</ciudad><latitud>51.36333465576172</latitud><longitud>14.949999809265137</longitud></localización></aeropuerto><aeropuerto país: "Germany"><nombre>"Anklam Airport"</nombre><iata>\N</iata><localización><ciudad>"Anklam"</ciudad><latitud>53.83277893066406</latitud><longitud>13.668610572814941</longitud></localización></aeropuerto><aeropuerto país: "Germany"><nombre>"Cottbus-Drewitz Airport"</nombre><iata>\N</iata><localización><ciudad>"Cottbus"</ciudad><latitud>51.889442</latitud><longitud>14.531944</longitud></localización></aeropuerto><aeropuerto país: "Germany"><nombre>"Kamenz Airport"</nombre><iata>\N</iata><localización><ciudad>"Kamenz"</ciudad><latitud>51.29694366455078</latitud><longitud>14.1274995803833</longitud></localización></aeropuerto><aeropuerto país: "Germany"><nombre>"Berlin-Schönefeld International Airport"</nombre><iata>"SXF"</iata><localización><ciudad>"Berlin"</ciudad><latitud>52.380001068115</latitud><longitud>13.522500038147</longitud></localización></aeropuerto><aeropuerto país: "Germany"><nombre>"Dresden Airport"</nombre><iata>"DRS"</iata><localización><ciudad>"Dresden"</ciudad><latitud>51.1328010559082</latitud><longitud>13.767200469970703</longitud></localización></aeropuerto><aeropuerto país: "Germany"><nombre>"Erfurt Airport"</nombre><iata>"ERF"</iata><localización><ciudad>"Erfurt"</ciudad><latitud>50.979801177978516</latitud><longitud>10.958100318908691</longitud></localización></aeropuerto><aeropuerto país: "Germany"><nombre>"Frankfurt am Main International Airport"</nombre><iata>"FRA"</iata><localización><ciudad>"Frankfurt"</ciudad><latitud>50.0333333</latitud><longitud>8.5705556</longitud></localización></aeropuerto><aeropuerto país: "Germany"><nombre>"Münster Osnabrück Airport"</nombre><iata>"FMO"</iata><localización><ciudad>"Munster"</ciudad><latitud>52.134601593</latitud><longitud>7.68483018875</longitud></localización></aeropuerto><aeropuerto país: "Germany"><nombre>"Hamburg Airport"</nombre><iata>"HAM"</iata><localización><ciudad>"Hamburg"</ciudad><latitud>53.630401611328</latitud><longitud>9.9882297515869</longitud></localización></aeropuerto><aeropuerto país: "Germany"><nombre>"Berlin-Tempelhof International Airport"</nombre><iata>"THF"</iata><localización><ciudad>"Berlin"</ciudad><latitud>52.472999572753906</latitud><longitud>13.403900146484375</longitud></localización></aeropuerto><aeropuerto país: "Germany"><nombre>"Cologne Bonn Airport"</nombre><iata>"CGN"</iata><localización><ciudad>"Cologne"</ciudad><latitud>50.8658981323</latitud><longitud>7.1427397728</longitud></localización></aeropuerto><aeropuerto país: "Germany"><nombre>"Düsseldorf International Airport"</nombre><iata>"DUS"</iata><localización><ciudad>"Duesseldorf"</ciudad><latitud>51.28950119018555</latitud><longitud>6.766779899597168</longitud></localización></aeropuerto><aeropuerto país: "Germany"><nombre>"Munich International Airport"</nombre><iata>"MUC"</iata><localización><ciudad>"Munich"</ciudad><latitud>48.353801727295</latitud><longitud>11.786100387573</longitud></localización></aeropuerto><aeropuerto país: "Germany"><nombre>"Nuremberg Airport"</nombre><iata>"NUE"</iata><localización><ciudad>"Nuernberg"</ciudad><latitud>49.498699</latitud><longitud>11.0780556</longitud></localización></aeropuerto><aeropuerto país: "Germany"><nombre>"Leipzig Halle Airport"</nombre><iata>"LEJ"</iata><localización><ciudad>"Leipzig"</ciudad><latitud>51.4238889</latitud><longitud>12.2363889</longitud></localización></aeropuerto><aeropuerto país: "Germany"><nombre>"Saarbrücken Airport"</nombre><iata>"SCN"</iata><localización><ciudad>"Saarbruecken"</ciudad><latitud>49.214599609400004</latitud><longitud>7.10950994492</longitud></localización></aeropuerto><aeropuerto país: "Germany"><nombre>"Stuttgart Airport"</nombre><iata>"STR"</iata><localización><ciudad>"Stuttgart"</ciudad><latitud>48.689899444599995</latitud><longitud>9.22196006775</longitud></localización></aeropuerto><aeropuerto país: "Germany"><nombre>"Berlin-Tegel International Airport"</nombre><iata>"TXL"</iata><localización><ciudad>"Berlin"</ciudad><latitud>52.5597000122</latitud><longitud>13.2876996994</longitud></localización></aeropuerto><aeropuerto país: "Germany"><nombre>"Hannover Airport"</nombre><iata>"HAJ"</iata><localización><ciudad>"Hannover"</ciudad><latitud>52.461101532</latitud><longitud>9.685079574580001</longitud></localización></aeropuerto><aeropuerto país: "Germany"><nombre>"Bremen Airport"</nombre><iata>"BRE"</iata><localización><ciudad>"Bremen"</ciudad><latitud>53.0475006104</latitud><longitud>8.78666973114</longitud></localización></aeropuerto><aeropuerto país: "Germany"><nombre>"Frankfurt-Egelsbach Airport"</nombre><iata>"QEF"</iata><localización><ciudad>"Egelsbach"</ciudad><latitud>49.959999084472656</latitud><longitud>8.645833015441895</longitud></localización></aeropuerto><aeropuerto país: "Germany"><nombre>"Frankfurt-Hahn Airport"</nombre><iata>"HHN"</iata><localización><ciudad>"Hahn"</ciudad><latitud>49.948699951200005</latitud><longitud>7.263889789579999</longitud></localización></aeropuerto><aeropuerto país: "Germany"><nombre>"Mannheim-City Airport"</nombre><iata>"MHG"</iata><localización><ciudad>"Mannheim"</ciudad><latitud>49.47305679321289</latitud><longitud>8.514166831970215</longitud></localización></aeropuerto><aeropuerto país: "Germany"><nombre>"Allendorf/Eder Airport"</nombre><iata>\N</iata><localización><ciudad>"Allendorf"</ciudad><latitud>51.03499984741211</latitud><longitud>8.680832862854004</longitud></localización></aeropuerto><aeropuerto país: "Germany"><nombre>"Worms Airport"</nombre><iata>\N</iata><localización><ciudad>"Worms"</ciudad><latitud>49.606945</latitud><longitud>8.368333</longitud></localización></aeropuerto><aeropuerto país: "Germany"><nombre>"Mainz-Finthen Airport"</nombre><iata>\N</iata><localización><ciudad>"Mainz"</ciudad><latitud>49.967499</latitud><longitud>8.147222</longitud></localización></aeropuerto><aeropuerto país: "Germany"><nombre>"Eisenach-Kindel Airport"</nombre><iata>\N</iata><localización><ciudad>"Eisenach"</ciudad><latitud>50.991604</latitud><longitud>10.47973</longitud></localización></aeropuerto><aeropuerto país: "Germany"><nombre>"Siegerland Airport"</nombre><iata>\N</iata><localización><ciudad>"Siegerland"</ciudad><latitud>50.707698822021484</latitud><longitud>8.082969665527344</longitud></localización></aeropuerto><aeropuerto país: "Germany"><nombre>"Hamburg-Finkenwerder Airport"</nombre><iata>"XFW"</iata><localización><ciudad>"Hamburg"</ciudad><latitud>53.5352783203125</latitud><longitud>9.835556030273438</longitud></localización></aeropuerto><aeropuerto país: "Germany"><nombre>"Kiel-Holtenau Airport"</nombre><iata>"KEL"</iata><localización><ciudad>"Kiel"</ciudad><latitud>54.37944412231445</latitud><longitud>10.145277976989746</longitud></localización></aeropuerto><aeropuerto país: "Germany"><nombre>"Lübeck Blankensee Airport"</nombre><iata>"LBC"</iata><localización><ciudad>"Luebeck"</ciudad><latitud>53.8054008484</latitud><longitud>10.7192001343</longitud></localización></aeropuerto><aeropuerto país: "Germany"><nombre>"Flugplatz Dahlemer Binz"</nombre><iata>\N</iata><localización><ciudad>"Dahlemer Binz"</ciudad><latitud>50.405555725</latitud><longitud>6.5288891792</longitud></localización></aeropuerto><aeropuerto país: "Germany"><nombre>"Meinerzhagen Airport"</nombre><iata>\N</iata><localización><ciudad>"Meinerzhagen"</ciudad><latitud>51.099998474121094</latitud><longitud>7.599999904632568</longitud></localización></aeropuerto><aeropuerto país: "Germany"><nombre>"Arnsberg-Menden Airport"</nombre><iata>"ZCA"</iata><localización><ciudad>"Arnsberg"</ciudad><latitud>51.483890533447266</latitud><longitud>7.8983330726623535</longitud></localización></aeropuerto><aeropuerto país: "Germany"><nombre>"Essen Mulheim Airport"</nombre><iata>"ESS"</iata><localización><ciudad>"Essen"</ciudad><latitud>51.40230178833008</latitud><longitud>6.9373297691345215</longitud></localización></aeropuerto><aeropuerto país: "Germany"><nombre>"Bielefeld Airport"</nombre><iata>\N</iata><localización><ciudad>"Bielefeld"</ciudad><latitud>51.9647216797</latitud><longitud>8.544444084170001</longitud></localización></aeropuerto><aeropuerto país: "Germany"><nombre>"Mönchengladbach Airport"</nombre><iata>"MGL"</iata><localización><ciudad>"Moenchengladbach"</ciudad><latitud>51.23027801513672</latitud><longitud>6.504444122314453</longitud></localización></aeropuerto><aeropuerto país: "Germany"><nombre>"Paderborn Lippstadt Airport"</nombre><iata>"PAD"</iata><localización><ciudad>"Paderborn"</ciudad><latitud>51.614101409899995</latitud><longitud>8.616319656369999</longitud></localización></aeropuerto><aeropuerto país: "Germany"><nombre>"Stadtlohn-Vreden Airport"</nombre><iata>\N</iata><localización><ciudad>"Stadtlohn"</ciudad><latitud>51.99583435058594</latitud><longitud>6.8405561447143555</longitud></localización></aeropuerto><aeropuerto país: "Germany"><nombre>"Dortmund Airport"</nombre><iata>"DTM"</iata><localización><ciudad>"Dortmund"</ciudad><latitud>51.51829910279999</latitud><longitud>7.61223983765</longitud></localización></aeropuerto><aeropuerto país: "Germany"><nombre>"Augsburg Airport"</nombre><iata>"AGB"</iata><localización><ciudad>"Augsburg"</ciudad><latitud>48.425278</latitud><longitud>10.931667</longitud></localización></aeropuerto><aeropuerto país: "Germany"><nombre>"Biberach a.d. Riß Airport"</nombre><iata>\N</iata><localización><ciudad>"Biberach"</ciudad><latitud>48.11111068725586</latitud><longitud>9.762778282165527</longitud></localización></aeropuerto><aeropuerto país: "Germany"><nombre>"Eggenfelden Airport"</nombre><iata>\N</iata><localización><ciudad>"Eggenfelden"</ciudad><latitud>48.39611053466797</latitud><longitud>12.723610877990723</longitud></localización></aeropuerto><aeropuerto país: "Germany"><nombre>"Mindelheim-Mattsies Airport"</nombre><iata>\N</iata><localización><ciudad>"Mindelheim"</ciudad><latitud>48.1069450378418</latitud><longitud>10.524999618530273</longitud></localización></aeropuerto><aeropuerto país: "Germany"><nombre>"Oberpfaffenhofen Airport"</nombre><iata>"OBF"</iata><localización><ciudad>"Oberpfaffenhofen"</ciudad><latitud>48.08140182495117</latitud><longitud>11.283100128173828</longitud></localización></aeropuerto><aeropuerto país: "Germany"><nombre>"Straubing Airport"</nombre><iata>"RBM"</iata><localización><ciudad>"Straubing"</ciudad><latitud>48.90083312988281</latitud><longitud>12.516667366027832</longitud></localización></aeropuerto><aeropuerto país: "Germany"><nombre>"Vilshofen Airport"</nombre><iata>\N</iata><localización><ciudad>"Vilshofen"</ciudad><latitud>48.6349983215332</latitud><longitud>13.195555686950684</longitud></localización></aeropuerto><aeropuerto país: "Germany"><nombre>"Leutkirch-Unterzeil Airport"</nombre><iata>\N</iata><localización><ciudad>"Leutkirch"</ciudad><latitud>47.858890533447266</latitud><longitud>10.014166831970215</longitud></localización></aeropuerto><aeropuerto país: "Germany"><nombre>"Friedrichshafen Airport"</nombre><iata>"FDH"</iata><localización><ciudad>"Friedrichshafen"</ciudad><latitud>47.671298980699994</latitud><longitud>9.51148986816</longitud></localización></aeropuerto><aeropuerto país: "Germany"><nombre>"Schwerin Parchim Airport"</nombre><iata>"SZW"</iata><localización><ciudad>"Parchim"</ciudad><latitud>53.426998</latitud><longitud>11.7834</longitud></localización></aeropuerto><aeropuerto país: "Germany"><nombre>"Stendal-Borstel Airport"</nombre><iata>"ZSN"</iata><localización><ciudad>"Stendal"</ciudad><latitud>52.62888717651367</latitud><longitud>11.818611145019531</longitud></localización></aeropuerto><aeropuerto país: "Germany"><nombre>"Aalen-Heidenheim/Elchingen Airport"</nombre><iata>\N</iata><localización><ciudad>"Aalen-heidenheim"</ciudad><latitud>48.77777862548828</latitud><longitud>10.264721870422363</longitud></localización></aeropuerto><aeropuerto país: "Germany"><nombre>"Bayreuth Airport"</nombre><iata>"BYU"</iata><localización><ciudad>"Bayreuth"</ciudad><latitud>49.98500061035156</latitud><longitud>11.640000343322754</longitud></localización></aeropuerto><aeropuerto país: "Germany"><nombre>"Burg Feuerstein Airport"</nombre><iata>\N</iata><localización><ciudad>"Burg Feuerstein"</ciudad><latitud>49.794166564941</latitud><longitud>11.133610725403</longitud></localización></aeropuerto><aeropuerto país: "Germany"><nombre>"Hof-Plauen Airport"</nombre><iata>"HOQ"</iata><localización><ciudad>"Hof"</ciudad><latitud>50.288612365722656</latitud><longitud>11.856389045715332</longitud></localización></aeropuerto><aeropuerto país: "Germany"><nombre>"Haßfurt-Schweinfurt Airport"</nombre><iata>\N</iata><localización><ciudad>"Hassfurt"</ciudad><latitud>50.0180549621582</latitud><longitud>10.529443740844727</longitud></localización></aeropuerto><aeropuerto país: "Germany"><nombre>"Koblenz-Winningen Airport"</nombre><iata>"ZNV"</iata><localización><ciudad>"Koblenz"</ciudad><latitud>50.325557708740234</latitud><longitud>7.528611183166504</longitud></localización></aeropuerto><aeropuerto país: "Germany"><nombre>"Trier-Föhren Airport"</nombre><iata>"ZQF"</iata><localización><ciudad>"Trier"</ciudad><latitud>49.863887786865234</latitud><longitud>6.787499904632568</longitud></localización></aeropuerto><aeropuerto país: "Germany"><nombre>"Speyer Airport"</nombre><iata>"ZQC"</iata><localización><ciudad>"Speyer"</ciudad><latitud>49.30472183227539</latitud><longitud>8.45138931274414</longitud></localización></aeropuerto><aeropuerto país: "Germany"><nombre>"Zweibrücken Airport"</nombre><iata>"ZQW"</iata><localización><ciudad>"Zweibruecken"</ciudad><latitud>49.20940017700195</latitud><longitud>7.400559902191162</longitud></localización></aeropuerto><aeropuerto país: "Germany"><nombre>"Donaueschingen-Villingen Airport"</nombre><iata>"ZQL"</iata><localización><ciudad>"Donaueschingen"</ciudad><latitud>47.97333145139999</latitud><longitud>8.52222156525</longitud></localización></aeropuerto><aeropuerto país: "Germany"><nombre>"Freiburg i. Br. Airport"</nombre><iata>\N</iata><localización><ciudad>"Freiburg"</ciudad><latitud>48.022777557400005</latitud><longitud>7.83249998093</longitud></localización></aeropuerto><aeropuerto país: "Germany"><nombre>"Mengen-Hohentengen Airport"</nombre><iata>\N</iata><localización><ciudad>"Mengen"</ciudad><latitud>48.053890228271484</latitud><longitud>9.372777938842773</longitud></localización></aeropuerto><aeropuerto país: "Germany"><nombre>"Adolf Würth Airport"</nombre><iata>\N</iata><localización><ciudad>"Schwaebisch Hall"</ciudad><latitud>49.1183319092</latitud><longitud>9.783888816829998</longitud></localización></aeropuerto><aeropuerto país: "Germany"><nombre>"Finsterwalde/Schacksdorf Airport"</nombre><iata>\N</iata><localización><ciudad>"Soest"</ciudad><latitud>51.607498</latitud><longitud>13.743611</longitud></localización></aeropuerto><aeropuerto país: "Germany"><nombre>"Braunschweig Wolfsburg Airport"</nombre><iata>"BWE"</iata><localización><ciudad>"Braunschweig"</ciudad><latitud>52.319199</latitud><longitud>10.5561</longitud></localización></aeropuerto><aeropuerto país: "Germany"><nombre>"Kassel-Calden Airport"</nombre><iata>"KSF"</iata><localización><ciudad>"Kassel"</ciudad><latitud>51.417273</latitud><longitud>9.384967</longitud></localización></aeropuerto><aeropuerto país: "Germany"><nombre>"Hildesheim Airport"</nombre><iata>\N</iata><localización><ciudad>"Hildesheim"</ciudad><latitud>52.18138885498047</latitud><longitud>9.946389198303223</longitud></localización></aeropuerto><aeropuerto país: "Germany"><nombre>"Bremerhaven Airport"</nombre><iata>"BRV"</iata><localización><ciudad>"Bremerhaven"</ciudad><latitud>53.506943</latitud><longitud>8.572778</longitud></localización></aeropuerto><aeropuerto país: "Germany"><nombre>"Emden Airport"</nombre><iata>"EME"</iata><localización><ciudad>"Emden"</ciudad><latitud>53.391109466552734</latitud><longitud>7.227499961853027</longitud></localización></aeropuerto><aeropuerto país: "Germany"><nombre>"Leer-Papenburg Airport"</nombre><iata>\N</iata><localización><ciudad>"Leer"</ciudad><latitud>53.271942138671875</latitud><longitud>7.441667079925537</longitud></localización></aeropuerto><aeropuerto país: "Germany"><nombre>"Wilhelmshaven-Mariensiel Airport"</nombre><iata>"WVN"</iata><localización><ciudad>"Wilhelmshaven"</ciudad><latitud>53.502220153808594</latitud><longitud>8.05222225189209</longitud></localización></aeropuerto><aeropuerto país: "Germany"><nombre>"Borkum Airport"</nombre><iata>"BMK"</iata><localización><ciudad>"Borkum"</ciudad><latitud>53.5963897705</latitud><longitud>6.70916700363</longitud></localización></aeropuerto><aeropuerto país: "Germany"><nombre>"Norderney Airport"</nombre><iata>"NRD"</iata><localización><ciudad>"Norderney"</ciudad><latitud>53.70694351196289</latitud><longitud>7.230000019073486</longitud></localización></aeropuerto><aeropuerto país: "Germany"><nombre>"Flensburg-Schäferhaus Airport"</nombre><iata>"FLF"</iata><localización><ciudad>"Flensburg"</ciudad><latitud>54.77333450317383</latitud><longitud>9.378889083862305</longitud></localización></aeropuerto><aeropuerto país: "Germany"><nombre>"Rendsburg-Schachtholm Airport"</nombre><iata>\N</iata><localización><ciudad>"Rendsburg"</ciudad><latitud>54.220001220703125</latitud><longitud>9.599444389343262</longitud></localización></aeropuerto><aeropuerto país: "Germany"><nombre>"Westerland Sylt Airport"</nombre><iata>"GWT"</iata><localización><ciudad>"Westerland"</ciudad><latitud>54.9132003784</latitud><longitud>8.34047031403</longitud></localización></aeropuerto><aeropuerto país: "Estonia"><nombre>"Ämari Air Base"</nombre><iata>\N</iata><localización><ciudad>"Armari Air Force Base"</ciudad><latitud>59.26029968261719</latitud><longitud>24.208499908447266</longitud></localización></aeropuerto><aeropuerto país: "Estonia"><nombre>"Kärdla Airport"</nombre><iata>"KDL"</iata><localización><ciudad>"Kardla"</ciudad><latitud>58.99079895019531</latitud><longitud>22.830699920654297</longitud></localización></aeropuerto><aeropuerto país: "Estonia"><nombre>"Kuressaare Airport"</nombre><iata>"URE"</iata><localización><ciudad>"Kuressaare"</ciudad><latitud>58.22990036010742</latitud><longitud>22.50950050354004</longitud></localización></aeropuerto><aeropuerto país: "Estonia"><nombre>"Pärnu Airport"</nombre><iata>"EPU"</iata><localización><ciudad>"Parnu"</ciudad><latitud>58.41899871826172</latitud><longitud>24.47279930114746</longitud></localización></aeropuerto><aeropuerto país: "Estonia"><nombre>"Lennart Meri Tallinn Airport"</nombre><iata>"TLL"</iata><localización><ciudad>"Tallinn-ulemiste International"</ciudad><latitud>59.41329956049999</latitud><longitud>24.832799911499997</longitud></localización></aeropuerto><aeropuerto país: "Estonia"><nombre>"Tartu Airport"</nombre><iata>"TAY"</iata><localización><ciudad>"Tartu"</ciudad><latitud>58.3074989319</latitud><longitud>26.690399169900004</longitud></localización></aeropuerto><aeropuerto país: "Finland"><nombre>"Enontekio Airport"</nombre><iata>"ENF"</iata><localización><ciudad>"Enontekio"</ciudad><latitud>68.362602233887</latitud><longitud>23.424299240112</longitud></localización></aeropuerto><aeropuerto país: "Finland"><nombre>"Eura Airport"</nombre><iata>\N</iata><localización><ciudad>"Eura"</ciudad><latitud>61.1161003112793</latitud><longitud>22.201400756835938</longitud></localización></aeropuerto><aeropuerto país: "Finland"><nombre>"Halli Airport"</nombre><iata>"KEV"</iata><localización><ciudad>"Halli"</ciudad><latitud>61.856039</latitud><longitud>24.786686</longitud></localización></aeropuerto><aeropuerto país: "Finland"><nombre>"Helsinki Malmi Airport"</nombre><iata>"HEM"</iata><localización><ciudad>"Helsinki"</ciudad><latitud>60.254600524902344</latitud><longitud>25.042800903320312</longitud></localización></aeropuerto><aeropuerto país: "Finland"><nombre>"Helsinki Vantaa Airport"</nombre><iata>"HEL"</iata><localización><ciudad>"Helsinki"</ciudad><latitud>60.317199707031</latitud><longitud>24.963300704956</longitud></localización></aeropuerto><aeropuerto país: "Finland"><nombre>"Hameenkyro Airport"</nombre><iata>\N</iata><localización><ciudad>"Hameenkyro"</ciudad><latitud>61.689701080322266</latitud><longitud>23.073699951171875</longitud></localización></aeropuerto><aeropuerto país: "Finland"><nombre>"Hanko Airport"</nombre><iata>\N</iata><localización><ciudad>"Hanko"</ciudad><latitud>59.848899841308594</latitud><longitud>23.083599090576172</longitud></localización></aeropuerto><aeropuerto país: "Finland"><nombre>"Hyvinkää Airfield"</nombre><iata>"HYV"</iata><localización><ciudad>"Hyvinkaa"</ciudad><latitud>60.6543998718</latitud><longitud>24.8810997009</longitud></localización></aeropuerto><aeropuerto país: "Finland"><nombre>"Kiikala Airport"</nombre><iata>\N</iata><localización><ciudad>"Kikala"</ciudad><latitud>60.4625015259</latitud><longitud>23.6525001526</longitud></localización></aeropuerto><aeropuerto país: "Finland"><nombre>"Immola Airport"</nombre><iata>\N</iata><localización><ciudad>"Immola"</ciudad><latitud>61.24919891357422</latitud><longitud>28.90369987487793</longitud></localización></aeropuerto><aeropuerto país: "Finland"><nombre>"Kitee Airport"</nombre><iata>\N</iata><localización><ciudad>"Kitee"</ciudad><latitud>62.1661</latitud><longitud>30.073601</longitud></localización></aeropuerto><aeropuerto país: "Finland"><nombre>"Ivalo Airport"</nombre><iata>"IVL"</iata><localización><ciudad>"Ivalo"</ciudad><latitud>68.607299804688</latitud><longitud>27.405300140381</longitud></localización></aeropuerto><aeropuerto país: "Finland"><nombre>"Joensuu Airport"</nombre><iata>"JOE"</iata><localización><ciudad>"Joensuu"</ciudad><latitud>62.662899017334</latitud><longitud>29.607500076294</longitud></localización></aeropuerto><aeropuerto país: "Finland"><nombre>"Jyvaskyla Airport"</nombre><iata>"JYV"</iata><localización><ciudad>"Jyvaskyla"</ciudad><latitud>62.399501800537</latitud><longitud>25.678300857544</longitud></localización></aeropuerto><aeropuerto país: "Finland"><nombre>"Kauhava Airport"</nombre><iata>"KAU"</iata><localización><ciudad>"Kauhava"</ciudad><latitud>63.127102</latitud><longitud>23.051399</longitud></localización></aeropuerto><aeropuerto país: "Finland"><nombre>"Kemi-Tornio Airport"</nombre><iata>"KEM"</iata><localización><ciudad>"Kemi"</ciudad><latitud>65.778701782227</latitud><longitud>24.582099914551</longitud></localización></aeropuerto><aeropuerto país: "Finland"><nombre>"Kajaani Airport"</nombre><iata>"KAJ"</iata><localización><ciudad>"Kajaani"</ciudad><latitud>64.285499572754</latitud><longitud>27.692399978638</longitud></localización></aeropuerto><aeropuerto país: "Finland"><nombre>"Kauhajoki Airport"</nombre><iata>\N</iata><localización><ciudad>"Kauhajoki"</ciudad><latitud>62.4625015259</latitud><longitud>22.3931007385</longitud></localización></aeropuerto><aeropuerto país: "Finland"><nombre>"Kokkola-Pietarsaari Airport"</nombre><iata>"KOK"</iata><localización><ciudad>"Kruunupyy"</ciudad><latitud>63.721199035645</latitud><longitud>23.143100738525</longitud></localización></aeropuerto><aeropuerto país: "Finland"><nombre>"Kemijarvi Airport"</nombre><iata>\N</iata><localización><ciudad>"Kemijarvi"</ciudad><latitud>66.712898</latitud><longitud>27.156799</longitud></localización></aeropuerto><aeropuerto país: "Finland"><nombre>"Kuusamo Airport"</nombre><iata>"KAO"</iata><localización><ciudad>"Kuusamo"</ciudad><latitud>65.987602233887</latitud><longitud>29.239400863647</longitud></localización></aeropuerto><aeropuerto país: "Finland"><nombre>"Kittilä Airport"</nombre><iata>"KTT"</iata><localización><ciudad>"Kittila"</ciudad><latitud>67.700996398926</latitud><longitud>24.846799850464</longitud></localización></aeropuerto><aeropuerto país: "Finland"><nombre>"Kuopio Airport"</nombre><iata>"KUO"</iata><localización><ciudad>"Kuopio"</ciudad><latitud>63.007099151611</latitud><longitud>27.797800064087</longitud></localización></aeropuerto><aeropuerto país: "Finland"><nombre>"Lahti Vesivehmaa Airport"</nombre><iata>\N</iata><localización><ciudad>"Vesivehmaa"</ciudad><latitud>61.144199</latitud><longitud>25.693501</longitud></localización></aeropuerto><aeropuerto país: "Finland"><nombre>"Lappeenranta Airport"</nombre><iata>"LPP"</iata><localización><ciudad>"Lappeenranta"</ciudad><latitud>61.044601</latitud><longitud>28.144743</longitud></localización></aeropuerto><aeropuerto país: "Finland"><nombre>"Mariehamn Airport"</nombre><iata>"MHQ"</iata><localización><ciudad>"Mariehamn"</ciudad><latitud>60.122200012207</latitud><longitud>19.898199081421</longitud></localización></aeropuerto><aeropuerto país: "Finland"><nombre>"Menkijarvi Airport"</nombre><iata>\N</iata><localización><ciudad>"Menkijarvi"</ciudad><latitud>62.94670104980469</latitud><longitud>23.51889991760254</longitud></localización></aeropuerto><aeropuerto país: "Finland"><nombre>"Mikkeli Airport"</nombre><iata>"MIK"</iata><localización><ciudad>"Mikkeli"</ciudad><latitud>61.6866</latitud><longitud>27.201799</longitud></localización></aeropuerto><aeropuerto país: "Finland"><nombre>"Nummela Airport"</nombre><iata>\N</iata><localización><ciudad>"Nummela"</ciudad><latitud>60.33390045169